City_ID,City,Lat,Lng,Max Temp,Humidity,Cloudiness,Wind Speed,Country,Date
0,ketchikan,55.3431,-131.6467,290.41,67,100,5.66,US,2023-07-23
1,bethel,60.7922,-161.7558,287.34,82,100,3.6,US,2023-07-23
2,yellowknife,62.4541,-114.3774,294.94,40,33,4.47,CA,2023-07-23
3,federacion,-29.4358,-66.8523,287.58,41,90,3.54,AR,2023-07-23
4,blackmans bay,-43.0047,147.318,285.73,83,83,1.92,AU,2023-07-23
5,margaret river,-33.9532,115.0769,282.59,80,0,4.94,AU,2023-07-23
6,invercargill,-46.4118,168.3471,281.91,92,99,0.71,NZ,2023-07-23
7,nagqu,31.4786,92.0498,278.13,94,100,1.77,CN,2023-07-23
8,lescar,43.3334,-0.4357,293.46,100,75,4.12,FR,2023-07-23
9,hamilton,43.2559,-79.8651,300.07,56,20,2.57,CA,2023-07-23
10,turtas,58.9376,69.1315,288.25,95,100,0.82,RU,2023-07-23
11,punta arenas,-53.1626,-70.9078,272.46,83,8,2.95,CL,2023-07-23
12,waitangi,-35.2705,174.0805,287.9,88,4,4.08,NZ,2023-07-23
13,papatowai,-46.5619,169.4708,282.49,93,98,0.84,NZ,2023-07-23
14,ust-nera,64.5664,143.2378,290.39,56,34,0.95,RU,2023-07-23
15,avarua,-21.2075,-159.7708,300.14,89,75,5.66,CK,2023-07-23
16,tralee,52.2693,-9.7054,286.12,95,69,2.3,IE,2023-07-23
17,loikaw,19.6742,97.2094,293.38,96,8,1.02,MM,2023-07-23
18,grytviken,-54.2806,-36.5098,267.04,77,26,3.79,GS,2023-07-23
19,walvis bay,-22.9543,14.5075,284.31,75,20,2.82,NA,2023-07-23
20,edinburgh of the seven seas,-37.0676,-12.3108,286.59,82,58,10.83,SH,2023-07-23
21,copan,14.7928,-89.1355,296.4,93,98,1.53,HN,2023-07-23
22,ressano garcia,-25.442,31.9913,290.8,53,81,2.04,ZA,2023-07-23
23,awjilah,29.1403,21.2975,304.83,31,0,3.84,LY,2023-07-23
24,hawaiian paradise park,19.5933,-154.9731,301.33,81,75,5.14,US,2023-07-23
25,mount gambier,-37.8247,140.782,284.44,85,100,1.34,AU,2023-07-23
26,la passe,46.2035,-1.4601,293.68,90,100,7.74,FR,2023-07-23
27,morondava,-20.2951,44.2786,292.98,74,0,2.47,MG,2023-07-23
28,georgetown,6.8137,-58.1624,300.31,80,19,2.59,GY,2023-07-23
29,bredasdorp,-34.5331,20.0428,282.71,74,55,2.76,ZA,2023-07-23
30,adamstown,-25.0667,-130.1002,293.58,69,22,7.65,PN,2023-07-23
31,tucurui,-3.7739,-49.6708,299.91,46,62,1.43,BR,2023-07-23
32,ballina,-28.8657,153.5659,288.03,68,100,6.59,AU,2023-07-23
33,vila franca do campo,37.7172,-25.4335,295.38,83,42,3.18,PT,2023-07-23
34,port mathurin,-19.6808,63.4221,296.27,74,9,7.43,MU,2023-07-23
35,aliabad,34.0361,48.1591,295.36,18,20,0.81,IR,2023-07-23
36,kapa'a,-33.9258,18.4232,285.03,83,20,1.54,ZA,2023-07-23
37,belmonte,39.5593,-2.7038,296.42,23,8,0.91,ES,2023-07-23
38,gimbi,8.8063,37.7882,284.96,89,100,1.5,ET,2023-07-23
39,port-aux-francais,-49.3498,70.22,278.87,90,80,15.36,TF,2023-07-23
40,kailua-kona,19.6419,-155.9969,303.13,83,40,5.14,US,2023-07-23
41,kavala,40.9369,24.4123,299.38,49,10,2.24,GR,2023-07-23
42,gobabis,-22.4495,18.9725,286.06,41,13,0.63,NA,2023-07-23
43,iqaluit,63.7494,-68.5219,283.12,71,40,3.6,CA,2023-07-23
44,whitehorse,60.7216,-135.0549,295.98,33,78,4.05,CA,2023-07-23
45,hayma',15.4662,44.2266,296.22,38,100,1.58,YE,2023-07-23
46,constantia,44.1767,28.6508,291.62,63,0,1.86,RO,2023-07-23
47,hammerfest,70.6413,23.8361,280.59,81,0,5.14,NO,2023-07-23
48,dejen,10.1641,38.15,285.87,87,100,2.23,ET,2023-07-23
49,mansa,-11.2007,28.8894,287.87,63,0,2.85,ZM,2023-07-23
50,udachny,66.4118,112.2517,292.48,63,89,3.13,RU,2023-07-23
51,ilulissat,69.2197,-51.0986,281.31,87,100,2.57,GL,2023-07-23
52,meadow lakes,37.0802,-119.4307,309.36,23,99,4.04,US,2023-07-23
53,port elizabeth,-33.9624,25.6232,285.44,76,0,6.69,ZA,2023-07-23
54,lihue,21.977,-159.3688,303.0,72,75,6.17,US,2023-07-23
55,puerto natales,-51.7262,-72.506,270.26,91,9,1.72,CL,2023-07-23
56,ushuaia,-54.8061,-68.3185,268.28,92,44,1.47,AR,2023-07-23
57,stanley,-51.6951,-57.8492,272.34,71,98,7.94,FK,2023-07-23
58,'ohonua,-21.3413,-174.9561,297.19,68,4,6.79,TO,2023-07-23
59,suai,-9.3097,125.2546,295.14,85,99,3.03,TL,2023-07-23
60,longyearbyen,78.22,15.65,284.21,71,40,6.17,SJ,2023-07-23
61,hasaki,35.753,140.8201,300.53,73,79,2.78,JP,2023-07-23
62,peniscola,40.3576,0.4071,301.5,73,39,3.71,ES,2023-07-23
63,ciudad mante,22.7411,-98.9714,309.41,38,22,8.78,MX,2023-07-23
64,birjand,32.8634,59.2177,293.8,26,0,4.7,IR,2023-07-23
65,jamestown,-15.9277,-5.7161,292.11,67,8,8.89,SH,2023-07-23
66,st. john's,47.5615,-52.7126,295.59,90,87,3.18,CA,2023-07-23
67,puerto ayora,-0.7472,-90.3134,298.76,78,53,4.88,EC,2023-07-23
68,saldanha,-32.9978,17.9456,284.59,78,0,3.72,ZA,2023-07-23
69,peace river,56.2337,-117.2911,300.19,31,95,1.49,CA,2023-07-23
70,hadibu,12.6512,54.0237,297.97,81,100,12.52,YE,2023-07-23
71,west island,-12.1459,96.8423,298.18,83,40,5.66,CC,2023-07-23
72,newman,37.3139,-121.0204,312.28,7,99,5.6,US,2023-07-23
73,uturoa,-16.7437,-151.4594,296.94,76,46,5.44,PF,2023-07-23
74,whakatane,-37.9519,176.9946,285.89,83,28,2.83,NZ,2023-07-23
75,bilibino,68.055,166.4449,290.83,63,82,0.83,RU,2023-07-23
76,denbigh,53.1854,-3.4178,286.44,96,100,4.2,GB,2023-07-23
77,ribeira grande,37.8225,-25.5195,295.34,78,40,3.6,PT,2023-07-23
78,afaahiti,-17.739,-149.29,301.66,77,57,4.91,PF,2023-07-23
79,larne,54.8508,-5.8183,287.34,88,35,4.38,GB,2023-07-23
80,kitimat,54.0536,-128.6541,290.32,49,99,1.79,CA,2023-07-23
81,svetlyy,64.042,42.6973,285.39,99,98,2.1,RU,2023-07-23
82,olyokminsk,60.373,120.4388,297.15,55,0,0.88,RU,2023-07-23
83,qaqortoq,60.7182,-46.0385,283.29,86,50,0.98,GL,2023-07-23
84,luderitz,-26.65,15.1573,287.6,51,100,7.43,NA,2023-07-23
85,geraldton,-28.7704,114.6147,282.24,53,0,8.23,AU,2023-07-23
86,sambava,-14.255,50.1557,293.13,85,38,2.91,MG,2023-07-23
87,vorgashor,67.5812,63.7837,287.29,96,100,3.09,RU,2023-07-23
88,nar'yan-mar,67.638,53.0071,288.09,92,100,3.14,RU,2023-07-23
89,mangualde,40.6035,-7.7656,289.56,73,62,1.25,PT,2023-07-23
90,selfoss,63.9368,-21.0035,286.01,76,100,2.23,IS,2023-07-23
91,iskateley,67.6762,53.1292,287.96,94,100,3.14,RU,2023-07-23
92,kashmor,24.9034,74.5564,298.96,89,69,3.06,IN,2023-07-23
93,saipan,15.191,145.7467,300.26,100,40,4.63,MP,2023-07-23
94,mutoko,-17.4046,32.2256,283.13,78,0,1.07,ZW,2023-07-23
95,khandyga,62.6478,135.5751,294.95,69,13,0.68,RU,2023-07-23
96,flin flon,54.7698,-101.879,298.4,23,10,2.72,CA,2023-07-23
97,college,45.3266,-75.8386,300.72,48,20,2.68,CA,2023-07-23
98,meiganga,6.5172,14.2948,292.16,95,100,1.52,CM,2023-07-23
99,sanibel,26.449,-82.0223,306.51,68,43,1.79,US,2023-07-23
100,darwin,-12.4604,130.841,290.2,29,0,7.2,AU,2023-07-23
101,coquimbo,-29.9532,-71.338,288.08,88,20,2.57,CL,2023-07-23
102,badger,42.6144,-94.1462,301.16,44,0,2.06,US,2023-07-23
103,toliara,-23.3542,43.6697,291.41,91,2,2.59,MG,2023-07-23
104,fort bragg,35.1403,-79.1541,303.78,62,75,2.06,US,2023-07-23
105,carauari,-4.8766,-66.8961,301.07,56,37,0.97,BR,2023-07-23
106,ulanhot,46.0708,122.0698,293.17,79,100,1.95,CN,2023-07-23
107,petropavlovsk-kamchatsky,53.02,158.6471,293.21,74,39,8.45,RU,2023-07-23
108,veraval,20.9101,70.3653,300.11,88,98,7.44,IN,2023-07-23
109,tiksi,71.6366,128.8685,281.94,62,4,2.27,RU,2023-07-23
110,magadan,59.5605,150.7989,290.53,74,84,0.92,RU,2023-07-23
111,wailua homesteads,22.0581,-159.3691,302.74,78,75,6.17,US,2023-07-23
112,bouarfa,32.5329,-1.9632,303.14,10,0,2.61,MA,2023-07-23
113,korla,41.7239,86.1735,301.61,29,99,3.24,CN,2023-07-23
114,nuuk,64.175,-51.7355,284.55,81,19,4.63,GL,2023-07-23
115,fuglafjordur,62.2431,-6.8178,280.73,81,100,5.49,FO,2023-07-23
116,puerto aysen,-45.4068,-72.6977,272.92,97,99,1.66,CL,2023-07-23
117,price,39.6008,-110.8063,308.72,13,0,8.75,US,2023-07-23
118,ambovombe,-25.1784,46.0877,291.62,86,0,2.46,MG,2023-07-23
119,aykhal,65.9516,111.4918,292.79,63,93,4.42,RU,2023-07-23
120,inhambane,-23.866,35.3844,291.55,86,5,4.19,MZ,2023-07-23
121,hermanus,-34.4175,19.2361,285.19,65,47,2.65,ZA,2023-07-23
122,klyuchi,56.3182,160.8422,290.6,85,100,2.52,RU,2023-07-23
123,ghanzi,-21.6968,21.6457,290.12,32,6,4.29,BW,2023-07-23
124,otjimbingwe,-22.3556,16.125,289.5,36,8,0.78,NA,2023-07-23
125,flying fish cove,-10.4213,105.6744,297.39,88,100,5.66,CX,2023-07-23
126,salinopolis,-0.6259,-47.3443,299.27,82,30,4.35,BR,2023-07-23
127,howard springs,-12.497,131.047,290.1,27,38,6.38,AU,2023-07-23
128,albany,42.6512,-73.755,302.4,62,40,4.63,US,2023-07-23
129,longjiang,22.8903,113.0705,303.14,77,75,1.12,CN,2023-07-23
130,terme,43.0004,2.5621,295.95,92,65,1.53,FR,2023-07-23
131,daru,-9.0699,143.21,298.49,69,100,3.44,PG,2023-07-23
132,faya-largeau,17.9209,19.0953,306.54,19,36,2.78,TD,2023-07-23
133,ijuw,-0.5152,166.9573,301.81,71,2,2.22,NR,2023-07-23
134,keflavik,63.9998,-22.5565,284.39,93,75,1.54,IS,2023-07-23
135,tam ky,15.5674,108.4842,297.79,92,72,1.66,VN,2023-07-23
136,kodiak,57.79,-152.4072,290.88,68,0,4.12,US,2023-07-23
137,fort mcmurray,56.7292,-111.3885,299.91,48,100,2.97,CA,2023-07-23
138,tutong,4.8067,114.6595,298.13,92,100,2.29,BN,2023-07-23
139,tinajo,29.0667,-13.6762,294.95,73,40,6.17,ES,2023-07-23
140,nokha,27.5575,73.4724,305.02,58,100,3.85,IN,2023-07-23
141,san jose del cabo,23.0598,-109.7025,305.8,73,100,4.12,MX,2023-07-23
142,caleta de carquin,-11.0918,-77.6283,293.37,78,3,4.68,PE,2023-07-23
143,villa madero,-34.6884,-58.4999,285.94,64,100,4.13,AR,2023-07-23
144,bereznik,62.8555,42.7101,285.26,98,100,2.19,RU,2023-07-23
145,hithadhoo,1.7959,73.3876,301.24,75,5,3.86,MV,2023-07-23
146,bouna,9.273,-2.997,296.38,94,56,1.85,CI,2023-07-23
147,kupang,-10.1632,123.6018,296.84,72,100,7.73,ID,2023-07-23
148,ancud,-41.8682,-73.8287,277.98,83,100,4.08,CL,2023-07-23
149,lebu,-37.61,-73.6559,282.08,84,85,1.8,CL,2023-07-23
150,talnakh,69.494,88.3908,284.03,80,15,0.5,RU,2023-07-23
151,tromso,69.6516,18.9558,286.64,82,100,2.06,NO,2023-07-23
152,ampanihy,-24.6941,44.7477,289.65,94,0,1.71,MG,2023-07-23
153,aasiaat,68.7096,-52.8513,276.71,96,100,0.47,GL,2023-07-23
154,thompson,55.7433,-97.8635,296.51,31,20,4.0,CA,2023-07-23
155,brisas de zicatela,15.8367,-97.0429,301.44,69,75,4.12,MX,2023-07-23
156,birao,10.2962,22.781,296.26,86,26,1.69,CF,2023-07-23
157,smithers,54.7792,-127.1761,295.36,35,78,0.8,CA,2023-07-23
158,mao,31.6835,103.8502,292.45,92,100,0.53,CN,2023-07-23
159,la'ie,21.6438,-157.9244,304.13,72,9,6.15,US,2023-07-23
160,lospalos,-8.522,126.9987,295.19,65,72,4.22,TL,2023-07-23
161,port lincoln,-34.7212,135.8592,285.79,76,100,1.43,AU,2023-07-23
162,verkhnevilyuysk,63.4498,120.3147,296.59,59,19,1.91,RU,2023-07-23
163,fort st. john,56.2524,-120.8469,296.05,26,100,2.76,CA,2023-07-23
164,chibougamau,49.9137,-74.3714,296.29,42,18,1.98,CA,2023-07-23
165,baykalovo,64.5789,40.2618,284.08,93,96,2.52,RU,2023-07-23
166,bengkulu,-3.7923,102.2624,297.2,92,99,3.08,ID,2023-07-23
167,alofi,-19.0534,-169.9192,297.25,66,58,7.72,NU,2023-07-23
168,harran,36.871,39.0251,304.65,25,0,4.06,TR,2023-07-23
169,isafjordur,66.0727,-23.1194,284.09,88,100,1.77,IS,2023-07-23
170,san antonio de pale,-1.4046,5.6326,295.81,82,69,4.88,GQ,2023-07-23
171,weno,7.4401,151.857,298.97,83,100,6.65,FM,2023-07-23
172,olonkinbyen,70.9224,-8.716,277.91,91,98,5.06,SJ,2023-07-23
173,bima,-8.4534,118.7277,296.03,89,44,1.82,ID,2023-07-23
174,bonthe,7.5273,-12.502,298.51,86,100,3.71,SL,2023-07-23
175,yerofey pavlovich,53.9592,121.9524,294.03,61,100,0.4,RU,2023-07-23
176,ak'ordat,15.55,37.8863,301.59,59,82,2.78,ER,2023-07-23
177,valparaiso,-33.0458,-71.6197,285.84,82,0,2.06,CL,2023-07-23
178,manakara,-22.1453,48.0081,291.38,94,8,1.63,MG,2023-07-23
179,santa marta,11.2321,-74.1951,305.16,58,20,0.0,CO,2023-07-23
180,nantucket,41.3157,-70.009,297.65,76,0,2.68,US,2023-07-23
181,culpeper,38.4732,-77.9967,302.96,58,0,3.6,US,2023-07-23
182,kuhmo,64.1262,29.5195,282.37,99,100,1.45,FI,2023-07-23
183,beipiao,41.7998,120.7635,296.11,83,2,1.63,CN,2023-07-23
184,amlagora,22.8446,87.3366,300.18,86,95,1.83,IN,2023-07-23
185,anna regina,7.2623,-58.4823,300.04,76,30,3.15,GY,2023-07-23
186,sormiou,43.2245,5.4032,298.54,39,21,3.81,FR,2023-07-23
187,cabedelo,-6.9732,-34.8352,297.53,82,12,6.51,BR,2023-07-23
188,tambacounda,13.7693,-13.6683,300.52,79,100,3.88,SN,2023-07-23
189,island harbour,49.6,-54.3,289.67,99,100,4.64,CA,2023-07-23
190,kota belud,6.3498,116.4293,299.09,79,100,2.84,MY,2023-07-23
191,port alfred,-33.5982,26.8915,284.85,82,97,2.24,ZA,2023-07-23
192,piacabucu,-10.4067,-36.4337,296.71,79,1,4.63,BR,2023-07-23
193,howrah,22.5736,88.3251,300.12,100,40,0.0,IN,2023-07-23
194,new norfolk,-42.7802,147.0615,285.9,77,96,2.41,AU,2023-07-23
195,broome,-17.9637,122.223,286.08,44,4,5.14,AU,2023-07-23
196,mar del plata,-37.9977,-57.5483,281.5,83,100,4.47,AR,2023-07-23
197,kasempa,-13.4583,25.8315,287.91,49,0,2.63,ZM,2023-07-23
198,cova figueira,14.8899,-24.2941,295.94,77,53,3.19,CV,2023-07-23
199,sarkand,45.4109,79.9155,292.91,36,2,3.35,KZ,2023-07-23
200,slonim,53.0927,25.3193,289.92,66,100,2.63,BY,2023-07-23
201,amungan,15.3641,119.9585,300.36,82,81,1.6,PH,2023-07-23
202,san luis potosi,22.1516,-100.9764,299.94,26,75,6.69,MX,2023-07-23
203,yemva,62.5983,50.8879,284.59,98,56,2.92,RU,2023-07-23
204,mount pearl,47.5189,-52.8145,294.96,90,87,1.34,CA,2023-07-23
205,aioun,16.6598,-9.6179,308.67,35,19,2.97,MR,2023-07-23
206,armyansk,46.1133,33.6904,294.84,55,35,3.47,UA,2023-07-23
207,puerto lopez,4.0892,-72.9606,297.95,85,40,1.85,CO,2023-07-23
208,guerrero negro,27.971,-114.0364,299.6,50,3,7.26,MX,2023-07-23
209,bath,51.3814,-2.3597,289.72,89,90,2.15,GB,2023-07-23
210,chonchi,-42.624,-73.7724,278.44,90,100,0.9,CL,2023-07-23
211,zaraysk,54.7586,38.8818,285.54,96,62,3.19,RU,2023-07-23
212,suruc,36.9755,38.4242,302.48,28,0,6.03,TR,2023-07-23
213,yinchuan,38.4852,106.2262,298.3,38,22,3.52,CN,2023-07-23
214,villa gesell,-37.2556,-56.9681,282.07,66,100,5.87,AR,2023-07-23
215,kalevala,65.2001,31.1802,282.7,97,100,2.9,RU,2023-07-23
216,sitka,57.0525,-135.3376,288.05,88,100,2.06,US,2023-07-23
217,anadyr,64.7317,177.5061,287.08,82,100,3.0,RU,2023-07-23
218,brookings,44.3115,-96.7984,303.21,57,6,3.63,US,2023-07-23
219,kingston,17.9712,-76.7928,305.88,68,20,12.35,JM,2023-07-23
220,slyudyanka,51.6568,103.7193,289.1,99,100,1.01,RU,2023-07-23
221,borgo,46.0533,11.4566,295.56,72,10,1.03,IT,2023-07-23
222,suva,-18.1416,178.4422,298.86,69,75,1.54,FJ,2023-07-23
223,vernon,49.0918,1.4887,292.29,92,98,4.75,FR,2023-07-23
224,lompoc,34.6392,-120.4579,298.49,78,100,3.6,US,2023-07-23
225,yuzhno-kurilsk,44.0271,145.8614,289.28,96,99,1.19,RU,2023-07-23
226,nisporeni,47.0749,28.1778,292.31,50,18,0.53,MD,2023-07-23
227,floro,61.6003,5.035,288.19,88,50,1.54,NO,2023-07-23
228,paita,-5.0852,-81.1137,296.37,77,2,7.95,PE,2023-07-23
229,loa janan,-0.5876,117.0887,296.21,98,60,1.16,ID,2023-07-23
230,carnarvon,-24.881,113.6595,287.45,34,0,7.89,AU,2023-07-23
231,euclides da cunha,-10.5061,-39.013,293.03,65,2,4.77,BR,2023-07-23
232,jejuri,18.2769,74.1602,295.55,88,100,6.46,IN,2023-07-23
233,durgapur,23.535,87.338,299.95,88,75,2.19,IN,2023-07-23
234,richards bay,-28.7708,32.0578,291.76,88,38,4.55,ZA,2023-07-23
235,praia da vitoria,38.7392,-27.1563,294.05,82,24,3.51,PT,2023-07-23
236,mount isa,-20.729,139.4932,283.07,57,0,4.12,AU,2023-07-23
237,soritor,-6.1379,-77.1013,295.62,77,59,0.47,PE,2023-07-23
238,kismayo,-0.3602,42.5409,297.9,83,72,7.59,SO,2023-07-23
239,ruyigi,-3.4733,30.2501,289.69,55,14,0.57,BI,2023-07-23
240,alotau,-10.3061,150.4464,297.35,81,81,3.06,PG,2023-07-23
241,crane,31.3957,-102.3521,311.26,15,37,3.96,US,2023-07-23
242,forio,40.7368,13.8581,302.2,91,7,0.45,IT,2023-07-23
243,happy valley-goose bay,53.2964,-60.3112,296.44,73,75,0.0,CA,2023-07-23
244,kendari,-3.9918,122.518,295.95,89,34,1.25,ID,2023-07-23
245,kuusamo,65.9646,29.1883,282.88,92,100,1.23,FI,2023-07-23
246,lauro de freitas,-12.8924,-38.3128,299.15,78,20,5.14,BR,2023-07-23
247,vilyuchinsk,52.9318,158.4054,293.32,76,58,5.81,RU,2023-07-23
248,fuvahmulah,-0.2948,73.4241,301.39,76,50,3.82,MV,2023-07-23
249,guilin,25.2387,110.1751,299.34,89,79,1.01,CN,2023-07-23
250,sinabang,2.4795,96.3806,299.03,81,93,0.97,ID,2023-07-23
251,mata-utu,-13.282,-176.174,300.32,72,49,7.98,WF,2023-07-23
252,tolanaro,-25.0297,46.9904,294.03,83,20,6.17,MG,2023-07-23
253,shingu,33.7241,135.993,300.28,74,6,1.32,JP,2023-07-23
254,san pedro pochutla,15.7444,-96.4653,296.01,62,96,2.02,MX,2023-07-23
255,kudahuvadhoo,2.6705,72.8906,301.18,76,14,3.92,MV,2023-07-23
256,rubtsovsk,51.5276,81.2176,290.68,52,74,0.53,RU,2023-07-23
257,dana point,33.467,-117.6981,306.22,90,100,0.89,US,2023-07-23
258,kruisfontein,-34.012,24.7433,283.15,76,46,6.92,ZA,2023-07-23
259,tosontsengel,49.4757,100.8926,285.31,77,13,2.28,MN,2023-07-23
260,dongcun,25.5193,102.6742,290.74,98,53,0.67,CN,2023-07-23
261,baiyin,36.5452,104.1355,292.34,70,52,1.73,CN,2023-07-23
262,kavieng,-2.5735,150.7952,301.55,76,68,5.68,PG,2023-07-23
263,beyneu,45.3214,55.1862,303.41,23,52,6.25,KZ,2023-07-23
264,namtsy,62.7182,129.6642,296.61,54,88,1.79,RU,2023-07-23
265,fandrandava,-21.5206,47.2453,283.69,97,9,0.55,MG,2023-07-23
266,mana,43.0818,0.9505,296.64,79,16,1.7,FR,2023-07-23
267,jiamusi,46.8088,130.3735,294.41,86,82,7.29,CN,2023-07-23
268,riverton,40.687,-95.5682,303.51,58,0,1.54,US,2023-07-23
269,narrabri,-30.3296,149.7814,284.51,76,0,2.24,AU,2023-07-23
270,cumaribo,4.4471,-69.7976,297.28,91,66,0.47,CO,2023-07-23
271,esquel,-42.9134,-71.3133,274.01,75,100,1.8,AR,2023-07-23
272,bodden town,19.2844,-81.2604,306.16,73,20,4.63,KY,2023-07-23
273,kushiro,42.985,144.382,293.7,100,75,1.03,JP,2023-07-23
274,thinadhoo,0.5294,72.9988,301.4,74,9,4.04,MV,2023-07-23
275,az zulfi,26.2996,44.8152,306.37,9,71,4.78,SA,2023-07-23
276,rongelap,11.1629,166.8943,301.79,70,23,7.53,MH,2023-07-23
277,aoulef,26.9722,1.0787,311.65,15,42,1.15,DZ,2023-07-23
278,sumenep,-7.0067,113.8599,297.59,85,8,3.69,ID,2023-07-23
279,swift current,50.2849,-107.7984,305.42,24,13,3.4,CA,2023-07-23
280,el abiodh sidi cheikh,32.8965,0.5464,303.59,11,52,3.9,DZ,2023-07-23
281,kokpekty,49.9354,73.2847,288.21,52,86,2.15,KZ,2023-07-23
282,lesnoy,55.0119,20.6171,288.2,89,100,1.0,RU,2023-07-23
283,paracatu,-17.2174,-46.8708,294.02,45,6,1.07,BR,2023-07-23
284,augusto correa,-1.0229,-46.6404,297.78,85,89,1.61,BR,2023-07-23
285,vadso,70.2267,29.7828,278.26,93,100,6.69,NO,2023-07-23
286,praia,14.9163,-23.5095,299.47,78,40,4.63,CV,2023-07-23
287,acarau,-2.8877,-40.1183,299.13,78,51,6.6,BR,2023-07-23
288,dalaba,10.6912,-12.2516,290.59,97,100,1.03,GN,2023-07-23
289,santo domingo zanatepec,16.4806,-94.3524,304.0,70,89,0.94,MX,2023-07-23
290,nadym,65.5336,72.5114,289.95,78,23,2.42,RU,2023-07-23
291,bobo-dioulasso,11.1771,-4.2979,298.4,83,20,1.54,BF,2023-07-23
292,nova sintra,14.8711,-24.6956,296.14,78,93,4.24,CV,2023-07-23
293,sobrance,48.7447,22.1807,292.24,66,38,1.86,SK,2023-07-23
294,codrington,51.5082,-2.3937,289.08,89,78,0.89,GB,2023-07-23
295,qingdao,36.0649,120.3804,298.13,86,0,1.27,CN,2023-07-23
296,lorengau,-2.033,147.2789,301.07,75,94,2.89,PG,2023-07-23
297,sabang,5.8927,95.3226,301.17,72,100,9.58,ID,2023-07-23
298,greenville,34.8514,-82.3985,304.01,79,100,3.6,US,2023-07-23
299,haifa,32.8191,34.9984,301.04,81,0,2.26,IL,2023-07-23
300,basco,40.3278,-91.2001,304.4,17,40,6.38,US,2023-07-23
301,alvaraes,-3.2148,-64.8143,302.2,65,65,1.33,BR,2023-07-23
302,morshansk,53.4429,41.8131,287.39,94,40,2.55,RU,2023-07-23
303,formosa do rio preto,-11.0415,-45.1904,295.53,45,4,1.55,BR,2023-07-23
304,black point,24.0963,-76.4023,303.65,79,2,3.03,BS,2023-07-23
305,kievka,54.3963,62.8787,289.04,60,90,2.69,RU,2023-07-23
306,callao,-12.0523,-77.1391,295.73,64,20,5.14,PE,2023-07-23
307,canoinhas,-26.1755,-50.395,290.79,79,86,0.84,BR,2023-07-23
308,vanino,49.0905,140.2609,291.69,89,90,2.07,RU,2023-07-23
309,tumpat,6.2003,102.1707,297.68,91,69,1.87,MY,2023-07-23
310,markovo,42.3473,25.2238,295.76,72,24,2.7,BG,2023-07-23
311,queenstown,-45.0322,168.661,281.1,89,87,1.2,NZ,2023-07-23
312,tashtyp,52.7959,89.8917,287.05,95,77,2.34,RU,2023-07-23
313,nuku'alofa,-21.1343,-175.2018,297.34,69,40,2.57,TO,2023-07-23
314,bom jesus,-28.6693,-50.4347,286.99,92,32,1.29,BR,2023-07-23
315,gadzhiyevo,69.2504,33.3153,282.3,93,100,6.49,RU,2023-07-23
316,yanam,16.7334,82.2145,298.2,91,100,4.03,IN,2023-07-23
317,yaren,-0.5471,166.9164,301.76,72,2,2.17,NR,2023-07-23
318,montmagny,48.9729,2.3436,294.38,83,100,4.63,FR,2023-07-23
319,paraparaumu,-40.9145,175.0062,285.54,86,99,5.59,NZ,2023-07-23
320,torrington,41.8007,-73.1212,300.59,67,1,1.36,US,2023-07-23
321,kununurra,-15.7731,128.7388,290.1,34,84,7.2,AU,2023-07-23
322,ploermel,47.9324,-2.3981,289.59,97,80,3.21,FR,2023-07-23
323,enewetak,11.3409,162.3245,301.79,77,78,8.48,MH,2023-07-23
324,ola,35.0323,-93.2232,306.87,32,13,1.89,US,2023-07-23
325,magdagachi,53.4509,125.8035,293.2,58,100,1.9,RU,2023-07-23
326,hola,-1.4977,40.0349,296.25,85,80,4.72,KE,2023-07-23
327,amahai,-3.3082,129.0011,300.45,84,73,3.88,ID,2023-07-23
328,bukama,-11.7055,27.4726,288.33,56,0,2.0,CD,2023-07-23
329,tazovsky,67.4735,78.7149,288.22,90,91,1.94,RU,2023-07-23
330,nova xavantina,-14.6771,-52.3502,297.16,37,0,1.05,BR,2023-07-23
331,mazagao,-0.1161,-51.2862,302.18,75,53,1.8,BR,2023-07-23
332,smidovich,48.5957,133.8138,292.06,98,100,4.64,RU,2023-07-23
333,alice springs,-23.6984,133.8813,276.9,81,100,3.6,AU,2023-07-23
334,thames,-37.138,175.5418,284.82,79,24,1.81,NZ,2023-07-23
335,west wodonga,-36.1015,146.8275,281.01,100,0,1.12,AU,2023-07-23
336,aitape,-3.151,142.3594,298.63,90,100,2.36,PG,2023-07-23
337,bensonville,5.9265,-9.9567,297.45,90,100,2.88,LR,2023-07-23
338,saint-pierre,48.3833,7.4719,295.22,68,97,1.5,FR,2023-07-23
339,badiyah,22.4501,58.8003,300.48,72,100,2.41,OM,2023-07-23
340,oskarshamn,57.2633,16.4443,287.58,97,100,2.03,SE,2023-07-23
341,ust'-kut,56.781,105.746,291.33,82,96,0.86,RU,2023-07-23
342,mae hong son,19.3015,97.9666,295.98,97,12,0.43,TH,2023-07-23
343,tocopilla,-22.0887,-70.1961,290.99,80,24,2.44,CL,2023-07-23
344,altai,48.3036,89.5145,282.78,40,60,3.85,MN,2023-07-23
345,ciudad acuna,29.3249,-100.9322,306.33,48,0,7.2,MX,2023-07-23
346,chui,-33.6895,-53.4547,284.66,74,56,3.9,BR,2023-07-23
347,nemuro,43.3301,145.5829,289.4,98,100,4.75,JP,2023-07-23
348,baoqing,46.3236,132.1987,296.98,87,63,5.03,CN,2023-07-23
349,corner brook,48.9532,-57.9474,294.06,98,100,2.29,CA,2023-07-23
350,porto velho,-8.7495,-63.8735,299.18,73,0,0.51,BR,2023-07-23
351,ofunato,39.0818,141.7084,299.01,72,100,1.81,JP,2023-07-23
352,catio,11.2836,-15.2547,298.82,89,86,2.28,GW,2023-07-23
353,sinop,42.0266,35.1512,296.97,79,41,5.22,TR,2023-07-23
354,kamloops,50.6758,-120.3394,305.53,24,40,1.34,CA,2023-07-23
355,zakamensk,50.3778,103.2915,285.64,96,35,1.07,RU,2023-07-23
356,celestun,20.8604,-90.3994,302.65,76,20,7.51,MX,2023-07-23
357,villa alberto andres alvarado aramburo,27.6417,-113.3806,312.24,18,3,6.3,MX,2023-07-23
358,challapata,-18.9022,-66.775,282.69,17,0,0.71,BO,2023-07-23
359,katsuura,35.1522,140.3207,299.09,71,43,1.16,JP,2023-07-23
360,orapa,-21.3362,25.365,288.02,33,7,2.76,BW,2023-07-23
361,plettenberg bay,-34.0528,23.3694,283.71,83,40,4.31,ZA,2023-07-23
362,troitskoye,55.2469,37.6271,288.08,95,59,2.93,RU,2023-07-23
363,nikshahr,26.226,60.2162,301.35,73,100,1.67,IR,2023-07-23
364,kone,-21.0608,164.8619,295.34,44,5,1.62,NC,2023-07-23
365,noumea,-22.2745,166.4424,295.16,99,13,1.12,NC,2023-07-23
366,banda aceh,5.5528,95.3193,299.58,71,92,5.91,ID,2023-07-23
367,ridder,50.3389,83.5062,287.9,59,94,1.14,KZ,2023-07-23
368,fort-shevchenko,44.5086,50.2619,301.12,52,8,5.06,KZ,2023-07-23
369,hotan,37.1127,79.9112,300.61,28,100,1.91,CN,2023-07-23
370,ahau,-12.501,177.0479,300.55,77,92,9.37,FJ,2023-07-23
371,vryburg,-26.9553,24.7301,283.85,22,98,2.48,ZA,2023-07-23
372,katabu,10.6948,7.5116,293.46,94,100,1.62,NG,2023-07-23
373,taroa,12.43,-71.5763,300.27,85,100,10.66,CO,2023-07-23
374,puerto baquerizo moreno,-0.9026,-89.6102,298.1,80,92,5.48,EC,2023-07-23
375,cabo san lucas,22.8939,-109.9201,305.85,79,100,4.12,MX,2023-07-23
376,tommot,58.9685,126.2669,294.21,77,20,1.06,RU,2023-07-23
377,yarrawonga,-36.0142,146.0063,279.85,81,0,1.39,AU,2023-07-23
378,ciudad lazaro cardenas,20.4622,-97.6991,301.81,66,97,2.2,MX,2023-07-23
379,mombetsu,44.3565,143.3545,292.3,97,100,1.31,JP,2023-07-23
380,lupane,-18.9347,27.7728,285.79,66,0,2.24,ZW,2023-07-23
381,vredenburg,-32.9067,17.99,283.09,81,0,3.69,ZA,2023-07-23
382,cairns city,-16.9178,145.7757,293.25,56,100,3.09,AU,2023-07-23
383,anabar,-0.5078,166.9521,301.81,71,2,2.21,NR,2023-07-23
384,tofol,5.326,163.0087,299.03,94,100,1.54,FM,2023-07-23
385,mocorito,25.4802,-107.92,307.12,41,30,4.86,MX,2023-07-23
386,san jose de feliciano,-30.3854,-58.7507,288.05,55,67,5.57,AR,2023-07-23
387,tual,-5.639,132.7429,298.31,78,99,11.82,ID,2023-07-23
388,kayangel,8.0822,134.719,301.73,75,100,7.01,PW,2023-07-23
389,ouadda,8.0716,22.3962,293.8,95,20,1.64,CF,2023-07-23
390,los lunas,34.8142,-106.7613,310.14,17,2,0.89,US,2023-07-23
391,sulak,38.0187,40.9225,298.4,41,0,2.06,TR,2023-07-23
392,machakos,-1.5212,37.2661,287.13,86,60,0.78,KE,2023-07-23
393,new plymouth,-39.058,174.0806,283.51,83,100,1.42,NZ,2023-07-23
394,namibe,-15.1951,12.1458,290.67,74,51,4.72,AO,2023-07-23
395,sumter,33.9204,-80.3415,302.28,70,40,9.77,US,2023-07-23
396,myeik,12.432,98.5956,297.96,89,100,1.17,MM,2023-07-23
397,vilyuysk,63.7541,121.6265,296.61,59,14,3.06,RU,2023-07-23
398,petropavlovka,44.8968,34.1475,292.06,58,65,0.68,UA,2023-07-23
399,roschinskiy,53.2669,40.0039,286.23,95,32,2.9,RU,2023-07-23
400,sydney,-33.868,151.21,286.81,92,75,3.6,AU,2023-07-23
401,rio tuba,8.5288,117.4345,299.95,85,100,4.18,PH,2023-07-23
402,holualoa,19.6238,-155.9536,299.44,86,3,2.68,US,2023-07-23
403,la libertad,17.6864,-91.7211,300.45,50,100,4.44,MX,2023-07-23
404,saint-louis du nord,19.9334,-72.7209,301.85,79,23,7.53,HT,2023-07-23
405,turkmenbasy,40.0053,52.9929,302.24,35,42,3.65,TM,2023-07-23
406,quellon,-43.12,-73.6203,276.42,93,100,0.0,CL,2023-07-23
407,cable beach,-17.9328,122.2137,286.12,44,4,5.14,AU,2023-07-23
408,lapua,62.9703,23.0069,286.12,98,100,1.7,FI,2023-07-23
409,kourou,5.1581,-52.6426,299.16,88,20,3.23,GF,2023-07-23
410,tsetserleg,47.4766,101.4533,284.64,78,17,2.3,MN,2023-07-23
411,filadelfia,39.9527,-75.1635,303.74,45,40,3.6,US,2023-07-23
412,san patricio,27.9695,-97.7732,312.4,41,37,7.09,US,2023-07-23
413,labytnangi,66.6615,66.3811,287.83,92,64,2.81,RU,2023-07-23
414,petrovsk-zabaykal'skiy,51.2752,108.8545,288.47,72,99,0.73,RU,2023-07-23
415,lazaro cardenas,20.225,-97.5931,303.33,67,98,1.35,MX,2023-07-23
416,yermakovskoye,53.278,92.3961,286.97,98,100,0.85,RU,2023-07-23
417,bontang,0.1237,117.4717,297.53,92,86,3.5,ID,2023-07-23
418,inekar,15.9487,3.1573,308.84,35,38,4.71,ML,2023-07-23
419,east london,-33.0154,27.904,287.4,69,100,7.04,ZA,2023-07-23
420,sodankyla,67.419,26.5902,280.51,98,11,2.33,FI,2023-07-23
421,inderbor,48.561,51.7479,300.16,32,86,3.95,KZ,2023-07-23
422,tazacorte,28.6429,-17.9326,296.53,88,40,8.23,ES,2023-07-23
423,lata,18.3983,76.5621,295.54,95,100,4.96,IN,2023-07-23
424,mejit,10.2843,170.8699,301.47,80,17,9.04,MH,2023-07-23
425,porto novo,6.4991,2.6253,296.67,95,100,2.92,BJ,2023-07-23
426,shambu,9.5665,37.1004,284.49,89,100,0.64,ET,2023-07-23
427,kargil,34.5594,76.1256,292.47,61,35,2.47,IN,2023-07-23
428,scarborough,54.2831,-0.3998,286.32,92,100,1.79,GB,2023-07-23
429,cockburn town,21.4608,-71.14,303.13,66,20,4.12,TC,2023-07-23
430,egilsstadir,65.262,-14.4035,281.09,100,100,2.57,IS,2023-07-23
431,sumbawa besar,-8.4899,117.4196,294.85,89,47,2.43,ID,2023-07-23
432,yelizovo,53.1865,158.3837,293.25,64,20,5.0,RU,2023-07-23
433,moab,38.5738,-109.5462,314.47,7,55,2.53,US,2023-07-23
434,post,33.1909,-101.3807,309.25,20,0,2.09,US,2023-07-23
435,plainview,34.1942,-101.7205,306.62,29,0,4.12,US,2023-07-23
436,novaya ladoga,60.1052,32.3148,285.92,85,11,4.2,RU,2023-07-23
437,puerto san carlos,-12.6608,-63.55,299.76,39,0,0.91,BR,2023-07-23
438,malard,35.6668,50.979,306.24,13,84,7.6,IR,2023-07-23
439,labrador city,52.9423,-66.9177,291.32,86,63,3.19,CA,2023-07-23
440,humahuaca,-23.204,-65.3488,287.1,21,0,1.24,AR,2023-07-23
441,olavarria,-36.894,-60.3227,279.56,56,100,3.53,AR,2023-07-23
442,harstad,68.9297,16.5209,283.94,97,36,0.95,NO,2023-07-23
443,manato,-23.1685,47.6493,291.12,95,12,1.75,MG,2023-07-23
444,mahibadhoo,3.7572,72.9689,301.15,79,20,4.2,MV,2023-07-23
445,dudinka,69.4061,86.1751,284.63,71,46,4.08,RU,2023-07-23
446,ghat,24.9626,10.1797,305.91,11,45,4.69,LY,2023-07-23
447,dunedin,-45.8741,170.5036,282.48,97,100,1.34,NZ,2023-07-23
448,porto seguro,-16.4435,-39.0643,296.46,83,75,2.06,BR,2023-07-23
449,le vauclin,14.5453,-60.8399,301.14,78,20,4.63,MQ,2023-07-23
450,raymond terrace,-32.7611,151.7462,288.06,100,75,3.6,AU,2023-07-23
451,arraial do cabo,-22.9663,-42.0244,294.7,86,0,9.86,BR,2023-07-23
452,ambon,47.5542,-2.5567,291.07,89,76,5.26,FR,2023-07-23
453,mutuali,-14.84,37.0042,289.93,68,50,1.55,MZ,2023-07-23
454,prairie view,30.0858,-95.9907,311.94,18,4,2.21,US,2023-07-23
455,barranca,-10.7541,-77.7609,292.92,76,4,4.02,PE,2023-07-23
456,essaouira,31.5118,-9.7621,293.46,89,0,7.98,MA,2023-07-23
457,ruskington,53.0452,-0.3967,288.63,96,100,5.14,GB,2023-07-23
458,ban houayxay,17.8609,104.6433,297.02,96,72,0.58,LA,2023-07-23
459,winnemucca,40.9724,-117.7348,310.13,8,0,5.14,US,2023-07-23
460,boda,46.0809,18.0478,293.12,88,0,1.54,HU,2023-07-23
461,montmorillon,46.425,0.8682,292.27,73,100,3.04,FR,2023-07-23
462,mukalla,14.5425,49.1231,303.79,67,100,4.73,YE,2023-07-23
463,naze,5.452,7.0567,296.07,98,97,1.8,NG,2023-07-23
464,gisborne,-38.6613,178.0206,284.99,59,2,1.5,NZ,2023-07-23
465,north saanich,48.6564,-123.4328,301.21,46,55,4.47,CA,2023-07-23
466,demre,36.2444,29.9875,305.83,29,0,4.2,TR,2023-07-23
467,ilhabela,-23.8166,-45.3687,293.37,73,0,1.88,BR,2023-07-23
468,mitu,36.1986,46.0868,294.35,43,0,1.47,IR,2023-07-23
469,belel,12.9057,1.5449,302.37,61,93,3.91,NE,2023-07-23
470,sur,33.2721,35.1964,300.99,72,0,1.34,LB,2023-07-23
471,sibay,52.7204,58.6655,286.72,64,70,1.4,RU,2023-07-23
472,ziro,27.5387,93.8154,290.55,96,100,0.32,IN,2023-07-23
473,jiangyou,31.9525,104.9347,297.17,84,100,2.34,CN,2023-07-23
474,kokopo,-4.3432,152.2687,300.69,76,98,8.45,PG,2023-07-23
475,bandarbeyla,9.4953,50.8128,298.18,70,100,13.0,SO,2023-07-23
476,akureyri,65.6839,-18.1122,282.81,93,100,0.0,IS,2023-07-23
477,sao vicente,-23.9604,-46.3847,299.43,26,1,1.9,BR,2023-07-23
478,tura,47.39,0.6889,292.47,74,0,3.6,FR,2023-07-23
479,fray luis beltran,-39.3145,-65.7585,281.07,35,100,3.92,AR,2023-07-23
480,puttalam,8.0297,79.8288,299.55,84,100,8.65,LK,2023-07-23
481,prince rupert,54.3127,-130.3255,288.84,82,99,1.03,CA,2023-07-23
482,taulaga,-11.0553,-171.0884,301.6,74,11,5.16,AS,2023-07-23
483,fria,10.363,-13.5812,296.73,97,99,0.56,GN,2023-07-23
484,sechura,-5.5575,-80.8223,297.87,65,2,8.25,PE,2023-07-23
485,grande prairie,55.1695,-118.7922,297.88,40,100,3.83,CA,2023-07-23
486,el haouaria,37.0498,11.0116,303.61,55,0,6.67,TN,2023-07-23
487,chany,55.3081,76.7596,288.74,95,82,1.91,RU,2023-07-23
488,kill devil hills,36.0321,-75.6776,301.15,73,0,3.09,US,2023-07-23
489,pangody,65.8566,74.4948,290.37,74,73,2.65,RU,2023-07-23
490,sisimiut,66.9372,-53.6665,280.06,86,93,0.75,GL,2023-07-23
491,kirovskoye,42.9364,74.8513,292.69,34,0,1.59,KG,2023-07-23
492,piriapolis,-34.8689,-55.2724,285.31,79,0,6.17,UY,2023-07-23
493,songea,-10.6787,35.6484,289.46,72,92,0.55,TZ,2023-07-23
494,sovetskaya gavan',48.9663,140.285,290.71,92,85,3.19,RU,2023-07-23
495,cantilan,9.3347,125.9804,299.72,78,100,2.99,PH,2023-07-23
496,riohacha,11.5352,-72.912,303.06,63,100,5.41,CO,2023-07-23
497,nouadhibou,20.9127,-17.0503,297.11,69,72,7.72,MR,2023-07-23
498,ruidoso,33.3316,-105.6731,304.79,18,20,6.69,US,2023-07-23
499,casper,42.8501,-106.3251,308.59,18,0,8.23,US,2023-07-23
500,bisbee,31.4482,-109.9284,307.3,26,74,2.24,US,2023-07-23
501,murun-kuren,49.6285,100.1746,285.71,73,7,1.29,MN,2023-07-23
502,tindouf,27.6718,-8.1397,306.14,24,44,4.74,DZ,2023-07-23
503,thal,46.5656,10.783,286.11,89,79,1.46,IT,2023-07-23
504,juegang,32.3154,121.1876,300.36,88,1,1.51,CN,2023-07-23
505,pupri,26.4707,85.7017,303.05,72,100,2.62,IN,2023-07-23
506,al quwayrah,15.1352,48.3305,301.59,41,100,5.44,YE,2023-07-23
507,lanivtsi,49.8734,26.078,289.51,68,66,4.2,UA,2023-07-23
508,tortoli,39.9266,9.6592,302.46,44,51,3.18,IT,2023-07-23
509,taoudenni,22.6762,-3.9805,312.11,18,16,2.95,ML,2023-07-23
510,mumford,42.9924,-77.8603,299.2,72,59,2.64,US,2023-07-23
511,dunaivtsi,48.8866,26.8477,288.97,65,9,2.57,UA,2023-07-23
512,griffith,-34.2871,146.0551,281.02,81,0,1.49,AU,2023-07-23
513,huocheng,44.054,80.8767,295.27,35,0,3.36,CN,2023-07-23
514,liberia,10.6333,-85.4363,302.7,70,40,3.09,CR,2023-07-23
515,la ronge,55.1005,-105.29,296.25,40,86,2.57,CA,2023-07-23
516,spas-demensk,54.4126,34.031,284.5,85,55,2.48,RU,2023-07-23
517,newnham,52.021,-0.1853,290.81,87,58,1.34,GB,2023-07-23
518,leku,-3.7801,126.8071,296.76,89,92,4.45,ID,2023-07-23
519,baotou,40.655,109.8344,297.26,44,8,2.32,CN,2023-07-23
520,molde,62.6016,8.1386,283.15,93,86,0.73,NO,2023-07-23
521,chaihe,42.2825,124.1678,295.77,84,9,2.03,CN,2023-07-23
522,atbara,17.6907,33.9807,306.91,11,17,4.72,SD,2023-07-23
523,kashgar,39.4703,75.9875,300.26,33,95,2.79,CN,2023-07-23
524,khovd,48.0006,91.6452,290.89,33,89,1.95,MN,2023-07-23
525,monrovia,6.328,-10.7978,298.18,84,100,4.27,LR,2023-07-23
526,saint-joseph,49.5345,-1.5298,287.46,94,75,1.54,FR,2023-07-23
527,bondo,46.0003,10.692,290.58,58,5,1.62,IT,2023-07-23
528,sao raimundo das mangabeiras,-7.0218,-45.4809,298.93,30,10,2.09,BR,2023-07-23
529,yanchep,-31.5499,115.6257,284.29,45,0,7.46,AU,2023-07-23
530,gombong,-7.6073,109.5142,294.48,92,47,1.03,ID,2023-07-23
531,ongjin,37.533,126.429,298.14,94,75,2.06,KR,2023-07-23
532,swan hill,-35.3393,143.5592,280.64,78,0,3.25,AU,2023-07-23
533,sola,37.5665,126.978,297.84,92,96,1.91,KR,2023-07-23
534,northam,51.0506,-4.2113,289.44,93,99,2.88,GB,2023-07-23
535,pemba,-5.1691,39.7994,297.02,84,49,5.65,TZ,2023-07-23
