City_ID,City,Lat,Lng,Max Temp,Humidity,Cloudiness,Wind Speed,Country,Date
0,waitangi,-35.2705,174.0805,283.64,90,54,54,NZ,2023-07-23
1,petropavlovsk-kamchatsky,53.02,158.6471,289.21,91,44,44,RU,2023-07-23
2,lappeenranta,61.0584,28.1863,290.81,72,0,0,FI,2023-07-23
3,talnakh,69.494,88.3908,284.03,86,41,41,RU,2023-07-23
4,port-aux-francais,-49.3498,70.22,279.44,82,81,81,TF,2023-07-23
5,ocean city,39.2776,-74.5746,304.92,52,3,3,US,2023-07-23
6,marathon,38.1533,23.9621,308.44,49,0,0,GR,2023-07-23
7,hasaki,35.753,140.8201,295.54,83,57,57,JP,2023-07-23
8,adamstown,-25.0667,-130.1002,293.65,71,9,9,PN,2023-07-23
9,grytviken,-54.2806,-36.5098,266.45,73,15,15,GS,2023-07-23
10,tual,-5.639,132.7429,298.53,76,63,63,ID,2023-07-23
11,jabor,5.8562,169.6243,301.62,79,89,89,MH,2023-07-23
12,candolim,15.5202,73.7659,299.97,85,100,100,IN,2023-07-23
13,pundong,-7.5837,112.2158,294.35,90,76,76,ID,2023-07-23
14,papatowai,-46.5619,169.4708,281.97,96,100,100,NZ,2023-07-23
15,lebu,-37.61,-73.6559,283.64,78,100,100,CL,2023-07-23
16,villa union,-17.0919,-64.5892,305.57,36,10,10,BO,2023-07-23
17,blackmans bay,-43.0047,147.318,282.95,78,92,92,AU,2023-07-23
18,ke-macina,13.9622,-5.3595,307.18,38,19,19,ML,2023-07-23
19,revda,56.8001,59.9087,287.71,74,79,79,RU,2023-07-23
20,puerto natales,-51.7262,-72.506,274.92,79,12,12,CL,2023-07-23
21,port elizabeth,-33.9617,25.6208,286.21,76,0,0,ZA,2023-07-23
22,hamilton,43.2561,-79.8729,302.23,58,75,75,CA,2023-07-23
23,puerto ayora,-0.7472,-90.3134,303.49,69,68,68,EC,2023-07-23
24,thompson,55.7433,-97.8635,292.25,52,40,40,CA,2023-07-23
25,tanjung selor,2.8418,117.3687,296.92,97,60,60,ID,2023-07-23
26,gadzhiyevo,69.2504,33.3153,282.32,86,100,100,RU,2023-07-23
27,laibin,23.7533,109.217,299.92,85,17,17,CN,2023-07-23
28,volosovo,59.4444,29.4925,287.87,71,90,90,RU,2023-07-23
29,kavaratti,10.5672,72.6395,301.37,83,100,100,IN,2023-07-23
30,albany,42.6512,-73.755,304.13,51,40,40,US,2023-07-23
31,inhambane,-23.866,35.3844,294.14,83,20,20,MZ,2023-07-23
32,luderitz,-26.65,15.1573,288.34,48,92,92,NA,2023-07-23
33,oroqen zizhiqi,50.2641,123.8496,286.67,97,100,100,CN,2023-07-23
34,hwawon,35.8024,128.4964,298.18,94,100,100,KR,2023-07-23
35,whitehorse,60.7216,-135.0549,287.58,88,100,100,CA,2023-07-23
36,jamestown,-15.9277,-5.7161,292.1,71,88,88,SH,2023-07-23
37,rio grande,-53.7857,-67.7016,273.17,80,0,0,AR,2023-07-23
38,tazovsky,67.4735,78.7149,289.69,81,88,88,RU,2023-07-23
39,atkarsk,51.8824,45.0126,288.92,84,88,88,RU,2023-07-23
40,bredasdorp,-34.5331,20.0428,281.82,87,50,50,ZA,2023-07-23
41,sabang,5.8927,95.3226,301.43,74,87,87,ID,2023-07-23
42,kayangel,8.0822,134.719,301.28,80,100,100,PW,2023-07-23
43,puerto san carlos,-12.6608,-63.55,309.04,22,0,0,BR,2023-07-23
44,ribeira grande,37.8225,-25.5195,297.34,69,40,40,PT,2023-07-23
45,port glaud,-4.6641,55.4178,299.02,83,40,40,SC,2023-07-23
46,orchard homes,46.8633,-114.0484,305.04,28,0,0,US,2023-07-23
47,muravlenko,63.7948,74.4969,291.71,63,52,52,RU,2023-07-23
48,antsiranana,-12.2779,49.2913,295.66,78,8,8,MG,2023-07-23
49,nizhneangarsk,55.7836,109.5718,289.22,58,48,48,RU,2023-07-23
50,selebi-phikwe,-21.9785,27.8374,289.87,26,2,2,BW,2023-07-23
51,ust-nera,64.5664,143.2378,285.06,83,48,48,RU,2023-07-23
52,murun-kuren,49.6285,100.1746,285.13,75,4,4,MN,2023-07-23
53,ilulissat,69.2197,-51.0986,283.31,76,75,75,GL,2023-07-23
54,ancud,-41.8682,-73.8287,279.75,79,74,74,CL,2023-07-23
55,fort mcmurray,56.7292,-111.3885,295.92,68,0,0,CA,2023-07-23
56,new norfolk,-42.7802,147.0615,283.12,87,95,95,AU,2023-07-23
57,smithers,54.7792,-127.1761,286.33,71,40,40,CA,2023-07-23
58,portland,45.5202,-122.6742,300.16,50,20,20,US,2023-07-23
59,tsaratanana,-21.1802,47.6378,289.12,99,41,41,MG,2023-07-23
60,dubrovnik,42.6487,18.0947,301.86,61,0,0,HR,2023-07-23
61,invercargill,-46.4131,168.3475,281.36,93,93,93,NZ,2023-07-23
62,iqaluit,63.7494,-68.5219,283.12,71,40,40,CA,2023-07-23
63,punta arenas,-53.1626,-70.9078,275.69,70,10,10,CL,2023-07-23
64,tolanaro,-25.0297,46.9904,295.03,83,20,20,MG,2023-07-23
65,ejura,7.3776,-1.3677,295.65,96,98,98,GH,2023-07-23
66,hirara,24.9264,125.2411,301.17,89,77,77,JP,2023-07-23
67,tromso,69.6516,18.9558,289.98,67,75,75,NO,2023-07-23
68,avarua,-21.2075,-159.7708,298.14,100,75,75,CK,2023-07-23
69,north las vegas,36.2006,-115.1216,316.63,15,0,0,US,2023-07-23
70,san jose village,14.6667,121.017,300.06,91,100,100,PH,2023-07-23
71,edinburgh of the seven seas,-37.0676,-12.3108,286.83,78,64,64,SH,2023-07-23
72,toliara,-23.3542,43.6697,293.03,85,0,0,MG,2023-07-23
73,bamboo flat,11.7126,92.7164,300.18,80,100,100,IN,2023-07-23
74,wailua homesteads,22.0581,-159.3691,298.74,91,100,100,US,2023-07-23
75,bilibino,68.055,166.4449,289.63,69,100,100,RU,2023-07-23
76,qaqortoq,60.7182,-46.0385,285.08,78,100,100,GL,2023-07-23
77,xiaoweizhai,26.2293,107.5129,295.55,98,52,52,CN,2023-07-23
78,port alfred,-33.5982,26.8915,286.51,83,52,52,ZA,2023-07-23
79,kapuskasing,49.4167,-82.4333,300.2,47,75,75,CA,2023-07-23
80,la'ie,21.6438,-157.9244,301.13,79,23,23,US,2023-07-23
81,james island,13.3175,-16.3614,301.33,68,95,95,GM,2023-07-23
82,carbonear,47.7331,-53.2366,301.0,90,91,91,CA,2023-07-23
83,tabas,33.596,56.9247,309.27,11,0,0,IR,2023-07-23
84,luganville,-15.5121,167.1784,295.55,87,100,100,VU,2023-07-23
85,buncrana,-45.4796,167.5561,280.13,96,98,98,NZ,2023-07-23
86,longyearbyen,78.22,15.65,285.21,62,40,40,SJ,2023-07-23
87,malango,-2.9627,119.9001,291.7,99,60,60,ID,2023-07-23
88,sisimiut,66.9372,-53.6665,280.29,88,97,97,GL,2023-07-23
89,ordynskoye,54.3667,81.904,291.0,75,51,51,RU,2023-07-23
90,cape coast,5.1075,-1.2431,297.91,86,99,99,GH,2023-07-23
91,nar'yan-mar,67.638,53.0071,289.75,85,99,99,RU,2023-07-23
92,constantia,44.1767,28.6508,294.74,63,53,53,RO,2023-07-23
93,okhotsk,59.3644,143.2411,286.93,81,16,16,RU,2023-07-23
94,santa terezinha,-26.7813,-50.009,297.67,52,9,9,BR,2023-07-23
95,tera,14.0073,0.757,308.43,37,58,58,NE,2023-07-23
96,traverse city,44.7642,-85.6174,299.2,53,100,100,US,2023-07-23
97,badger,42.6144,-94.1462,302.83,47,0,0,US,2023-07-23
98,ibaiti,-23.8453,-50.1906,296.57,46,11,11,BR,2023-07-23
99,zaozersk,69.4009,32.4413,281.7,86,100,100,RU,2023-07-23
100,dudinka,69.4061,86.1751,284.63,81,45,45,RU,2023-07-23
101,yellowknife,62.4541,-114.3774,294.25,56,100,100,CA,2023-07-23
102,al ghayzah,13.5591,44.0257,298.27,45,80,80,YE,2023-07-23
103,salekhard,66.5375,66.6157,288.22,93,73,73,RU,2023-07-23
104,kaga bandoro,6.9993,19.1823,299.36,70,99,99,CF,2023-07-23
105,west island,-12.1459,96.8423,298.18,83,96,96,CC,2023-07-23
106,ocean shores,46.9737,-124.1563,296.73,77,0,0,US,2023-07-23
107,bhiwani,28.7932,76.1391,305.49,60,100,100,IN,2023-07-23
108,battagram,34.6786,73.0281,296.34,84,49,49,PK,2023-07-23
109,williams lake,52.1293,-122.1397,293.01,49,75,75,CA,2023-07-23
110,bethel,60.7922,-161.7558,285.34,94,100,100,US,2023-07-23
111,yakeshi,49.3212,121.2781,284.64,93,100,100,CN,2023-07-23
112,port mathurin,-19.6808,63.4221,296.24,75,24,24,MU,2023-07-23
113,we,48.1565,14.0244,300.97,41,0,0,AT,2023-07-23
114,labrador city,52.9423,-66.9177,293.1,77,75,75,CA,2023-07-23
115,la passe,46.2035,-1.4601,294.23,85,100,100,FR,2023-07-23
116,namie,37.4946,141.0006,295.16,94,100,100,JP,2023-07-23
117,chinchilla,-26.7501,150.6229,282.91,77,98,98,AU,2023-07-23
118,la ronge,55.1005,-105.29,294.23,52,75,75,CA,2023-07-23
119,susuman,62.7797,148.1536,280.88,93,67,67,RU,2023-07-23
120,chonchi,-42.624,-73.7724,281.77,72,85,85,CL,2023-07-23
121,banfora,10.6427,-4.7526,300.23,79,79,79,BF,2023-07-23
122,miri,4.3927,113.988,299.21,94,20,20,MY,2023-07-23
123,berdigestyakh,62.0983,126.6998,290.41,74,51,51,RU,2023-07-23
124,bell ville,-32.6259,-62.6887,291.37,29,80,80,AR,2023-07-23
125,hayma',15.4662,44.2266,296.6,37,100,100,YE,2023-07-23
126,eyl,7.9807,49.8188,299.45,70,74,74,SO,2023-07-23
127,concepcion de la sierra,-27.9864,-55.5204,301.69,56,54,54,AR,2023-07-23
128,kruisfontein,-34.012,24.7433,284.26,77,92,92,ZA,2023-07-23
129,kataragama,6.4136,81.3324,299.83,72,99,99,LK,2023-07-23
130,tadmur,34.556,38.281,307.23,18,0,0,SY,2023-07-23
131,olonkinbyen,70.9224,-8.716,277.99,88,92,92,SJ,2023-07-23
132,akonolinga,3.7734,12.2449,294.32,97,78,78,CM,2023-07-23
133,'ohonua,-21.3413,-174.9561,295.19,73,4,4,TO,2023-07-23
134,crane,31.3957,-102.3521,308.22,26,77,77,US,2023-07-23
135,besisahar,28.2313,84.3761,297.45,92,67,67,NP,2023-07-23
136,hawkinsville,32.2839,-83.472,302.36,50,53,53,US,2023-07-23
137,saldanha,-32.9978,17.9456,281.3,77,28,28,ZA,2023-07-23
138,east london,-33.0192,27.8999,286.79,82,0,0,ZA,2023-07-23
139,hami,42.8174,93.5142,304.38,14,1,1,CN,2023-07-23
140,vilyuysk,63.7541,121.6265,291.88,74,75,75,RU,2023-07-23
141,greymouth,-42.4499,171.208,281.43,87,98,98,NZ,2023-07-23
142,port augusta,-32.4909,137.764,280.93,87,1,1,AU,2023-07-23
143,buka,-5.2314,154.6315,299.89,79,100,100,PG,2023-07-23
144,port lincoln,-34.7212,135.8592,285.79,74,100,100,AU,2023-07-23
145,vorgashor,67.5812,63.7837,287.99,97,99,99,RU,2023-07-23
146,la libertad,17.6864,-91.7211,304.45,53,100,100,MX,2023-07-23
147,marsh harbour,26.5383,-77.061,303.65,69,90,90,BS,2023-07-23
148,lazaro cardenas,20.225,-97.5931,305.33,67,96,96,MX,2023-07-23
149,nova sintra,14.8711,-24.6956,296.18,77,38,38,CV,2023-07-23
150,hinton,42.6267,-96.2939,303.53,47,0,0,US,2023-07-23
151,lampazos de naranjo,27.026,-100.5056,310.78,28,0,0,MX,2023-07-23
152,pathardi,20.4314,76.5842,298.08,86,41,41,IN,2023-07-23
153,la gi,10.6588,107.7731,298.45,90,100,100,VN,2023-07-23
154,youghal,52.8886,-8.3075,289.86,95,100,100,IE,2023-07-23
155,buala,-8.1455,159.593,298.65,88,100,100,SB,2023-07-23
156,fort st. john,56.2524,-120.8469,291.09,52,75,75,CA,2023-07-23
157,mckinleyville,40.9465,-124.1006,292.88,83,100,100,US,2023-07-23
158,carnarvon,-24.8826,113.6576,288.97,28,0,0,AU,2023-07-23
159,hawaiian paradise park,19.585,-154.9731,296.99,99,100,100,US,2023-07-23
160,zhangye,38.9365,100.4556,299.24,19,36,36,CN,2023-07-23
161,orcopampa,-15.954,-72.4859,301.96,25,0,0,PE,2023-07-23
162,warman,52.3202,-106.5756,303.18,47,40,40,CA,2023-07-23
163,gaiman,-43.2915,-65.4983,280.23,43,6,6,AR,2023-07-23
164,isafjordur,66.0727,-23.1194,283.2,93,100,100,IS,2023-07-23
165,stanley,-51.6951,-57.8492,274.34,80,40,40,FK,2023-07-23
166,hithadhoo,1.7959,73.3876,301.72,73,39,39,MV,2023-07-23
167,anadyr,64.7317,177.5061,285.08,93,100,100,RU,2023-07-23
168,brookings,44.3115,-96.7984,301.34,60,10,10,US,2023-07-23
169,margaret river,-33.9532,115.0769,282.71,78,0,0,AU,2023-07-23
170,primorsk,60.3667,28.6167,289.91,73,58,58,RU,2023-07-23
171,salalah,17.0175,54.1011,299.19,94,100,100,OM,2023-07-23
172,ibotirama,-12.183,-43.2181,305.66,26,25,25,BR,2023-07-23
173,guarapari,-20.6719,-40.4985,296.44,82,69,69,BR,2023-07-23
174,sorong,-0.8634,131.2545,298.91,82,100,100,ID,2023-07-23
175,ust'-ilimsk,57.9595,102.7342,290.41,72,81,81,RU,2023-07-23
176,jiuquan,39.7321,98.4937,300.86,16,24,24,CN,2023-07-23
177,walvis bay,-22.9543,14.5075,285.98,82,10,10,NA,2023-07-23
178,camocim,-2.901,-40.8427,304.8,53,47,47,BR,2023-07-23
179,cockburn town,21.4608,-71.14,304.13,66,40,40,TC,2023-07-23
180,weno,7.4401,151.857,298.62,89,75,75,FM,2023-07-23
181,mafinga,-8.3015,35.2989,285.3,88,74,74,TZ,2023-07-23
182,magadan,59.5605,150.7989,284.42,91,100,100,RU,2023-07-23
183,selfoss,63.9368,-21.0035,288.79,67,100,100,IS,2023-07-23
184,howard springs,-12.497,131.047,292.1,22,55,55,AU,2023-07-23
185,broken hill,-31.965,141.4511,278.63,84,4,4,AU,2023-07-23
186,lihue,21.977,-159.3688,299.0,90,100,100,US,2023-07-23
187,calvinia,-31.4694,19.7772,279.79,89,65,65,ZA,2023-07-23
188,ushuaia,-54.8061,-68.3185,274.98,80,75,75,AR,2023-07-23
189,lorengau,-2.033,147.2789,299.5,81,75,75,PG,2023-07-23
190,kananga,-5.8952,22.4086,300.45,29,0,0,CD,2023-07-23
191,kerikeri,-35.2273,173.9491,283.05,91,53,53,NZ,2023-07-23
192,isla vista,34.4115,-119.8562,304.25,82,89,89,US,2023-07-23
193,colonia,50.9384,6.96,295.35,70,100,100,DE,2023-07-23
194,kawalu,-1.9593,123.8495,300.55,74,32,32,ID,2023-07-23
195,tuy hoa,46.652,126.9607,291.54,98,89,89,CN,2023-07-23
196,la mira,18.035,-102.3266,306.7,49,41,41,MX,2023-07-23
197,kodiak,57.79,-152.4072,284.88,87,0,0,US,2023-07-23
198,labuan,-0.6985,119.8499,297.96,91,77,77,ID,2023-07-23
199,kingston,17.9712,-76.7928,308.1,69,20,20,JM,2023-07-23
200,meihekou,42.5358,125.6925,291.56,97,50,50,CN,2023-07-23
201,chui,-33.6895,-53.4547,290.73,48,86,86,BR,2023-07-23
202,kismayo,-0.3602,42.5409,298.24,82,68,68,SO,2023-07-23
203,karpenisi,38.9152,21.7943,295.48,51,0,0,GR,2023-07-23
204,jinghong,22.0026,100.7707,295.98,91,19,19,CN,2023-07-23
205,ahau,-12.501,177.0479,300.61,78,95,95,FJ,2023-07-23
206,shalqar,42.1142,63.6586,306.11,19,0,0,UZ,2023-07-23
207,ngorongoro,-3.2059,35.4452,284.23,68,30,30,TZ,2023-07-23
208,puerto baquerizo moreno,-0.9026,-89.6102,299.96,78,75,75,EC,2023-07-23
209,ca mau,9.1792,105.1458,298.0,93,99,99,VN,2023-07-23
210,sao raimundo das mangabeiras,-7.0236,-45.4769,308.84,16,15,15,BR,2023-07-23
211,terekeka,5.4506,31.754,301.32,52,74,74,SS,2023-07-23
212,moyale,3.5242,39.0513,296.42,54,96,96,KE,2023-07-23
213,takamaka,-21.3223,55.8001,293.66,87,76,76,RE,2023-07-23
214,suva,-18.1416,178.4422,292.86,100,75,75,FJ,2023-07-23
215,as sulayyil,20.4597,45.5744,311.32,10,90,90,SA,2023-07-23
216,igatpuri,19.6953,73.5651,295.26,98,100,100,IN,2023-07-23
217,iranduba,-3.2758,-60.1867,306.33,27,35,35,BR,2023-07-23
218,caribou,46.8606,-68.012,298.16,69,100,100,US,2023-07-23
219,chibougamau,49.9137,-74.3714,298.02,29,0,0,CA,2023-07-23
220,chitose,42.8209,141.651,294.86,90,75,75,JP,2023-07-23
221,kristiansund,63.2168,7.5453,289.51,67,20,20,NO,2023-07-23
222,klyuchi,56.3182,160.8422,289.0,95,100,100,RU,2023-07-23
223,nuuk,64.175,-51.7355,286.55,76,20,20,GL,2023-07-23
224,college,45.3266,-75.8386,302.25,49,75,75,CA,2023-07-23
225,kirensk,57.7764,108.1163,290.01,78,78,78,RU,2023-07-23
226,el granada,37.5026,-122.4654,303.02,68,0,0,US,2023-07-23
227,pisco,-13.71,-76.2032,295.09,68,100,100,PE,2023-07-23
228,atherton,37.4538,-122.2058,304.07,59,20,20,US,2023-07-23
229,bambari,5.768,20.6756,298.36,78,97,97,CF,2023-07-23
230,kuanda,56.3257,116.0827,289.89,75,99,99,RU,2023-07-23
231,tiksi,71.6366,128.8685,278.1,72,94,94,RU,2023-07-23
232,vilyuchinsk,52.9318,158.4054,289.32,90,44,44,RU,2023-07-23
233,lingyuan,40.9718,119.2696,290.66,90,0,0,CN,2023-07-23
234,uturoa,-16.7437,-151.4594,296.64,75,65,65,PF,2023-07-23
235,georgetown,6.8137,-58.1624,303.31,61,13,13,GY,2023-07-23
236,san patricio,27.9695,-97.7732,311.4,36,0,0,US,2023-07-23
237,lyangasovo,58.5186,49.4528,288.16,75,83,83,RU,2023-07-23
238,kirakira,-10.4569,161.9202,298.33,89,100,100,SB,2023-07-23
239,rio claro,-22.41,-47.5604,301.13,49,0,0,BR,2023-07-23
240,khandyga,62.6478,135.5751,287.18,93,6,6,RU,2023-07-23
241,blackwater,38.9803,-92.9908,305.75,22,0,0,US,2023-07-23
242,roma,41.8933,12.4829,304.72,53,0,0,IT,2023-07-23
243,lesozavodsk,45.4748,133.4182,294.77,93,100,100,RU,2023-07-23
244,sodankyla,67.419,26.5902,288.29,63,63,63,FI,2023-07-23
245,cole harbour,45.2594,-61.27,298.09,97,100,100,CA,2023-07-23
246,vadso,70.2267,29.7828,279.26,81,100,100,NO,2023-07-23
247,cabo san lucas,22.8939,-109.9201,305.92,74,20,20,MX,2023-07-23
248,sangola,20.519,76.7958,298.86,85,35,35,IN,2023-07-23
249,cam ranh,11.9167,109.1486,299.1,89,75,75,VN,2023-07-23
250,satupa'itea,-13.7665,-172.3267,295.15,78,20,20,WS,2023-07-23
251,tejen,37.3846,60.5027,305.12,11,0,0,TM,2023-07-23
252,qaisumah,28.3097,46.1275,313.12,9,0,0,SA,2023-07-23
253,guilin,25.2387,110.1751,300.22,94,20,20,CN,2023-07-23
254,sinabang,2.4795,96.3806,299.36,81,79,79,ID,2023-07-23
255,trairi,-3.2777,-39.2681,302.73,58,57,57,BR,2023-07-23
256,howrah,22.5736,88.3251,301.12,94,40,40,IN,2023-07-23
257,berezovyy,52.8927,50.2243,291.59,74,80,80,RU,2023-07-23
258,taroudant,30.4707,-8.8779,303.67,38,68,68,MA,2023-07-23
259,cabedelo,-6.9732,-34.8352,300.53,74,64,64,BR,2023-07-23
260,lakatoro,-16.1068,167.4185,295.11,83,99,99,VU,2023-07-23
261,undurkhaan,47.3256,110.6649,288.44,70,70,70,MN,2023-07-23
262,kavieng,-2.5735,150.7952,300.83,79,86,86,PG,2023-07-23
263,sakhnin,32.8638,35.3023,300.79,89,0,0,IL,2023-07-23
264,aasiaat,68.7096,-52.8513,276.57,98,100,100,GL,2023-07-23
265,nicoya,10.1488,-85.4533,303.55,71,91,91,CR,2023-07-23
266,nykobing sjaelland,55.9233,11.669,289.33,95,100,100,DK,2023-07-23
267,afaahiti,-17.739,-149.29,296.66,73,97,97,PF,2023-07-23
268,gorgoram,12.582,10.6319,299.84,64,100,100,NG,2023-07-23
269,prachuap khiri khan,11.8058,99.7967,298.36,87,100,100,TH,2023-07-23
270,grand forks,47.9078,-97.0592,302.27,52,40,40,US,2023-07-23
271,enewetak,11.3409,162.3245,301.66,78,41,41,MH,2023-07-23
272,truckee,39.328,-120.1833,305.11,27,75,75,US,2023-07-23
273,guaratuba,-25.8806,-48.5751,299.29,74,11,11,BR,2023-07-23
274,keflavik,63.9998,-22.5565,287.1,88,75,75,IS,2023-07-23
275,dubbo,-32.2479,148.6027,277.24,93,1,1,AU,2023-07-23
276,hermanus,-34.4175,19.2361,282.5,78,53,53,ZA,2023-07-23
277,limanowa,49.715,20.4231,295.94,67,69,69,PL,2023-07-23
278,lagos,6.4551,3.3942,297.91,91,99,99,NG,2023-07-23
279,remire-montjoly,4.905,-52.2772,305.15,70,40,40,GF,2023-07-23
280,winnemucca,40.9724,-117.7348,309.13,9,0,0,US,2023-07-23
281,tommot,58.9685,126.2669,288.93,93,49,49,RU,2023-07-23
282,udachny,66.4118,112.2517,292.48,59,85,85,RU,2023-07-23
283,labytnangi,66.6615,66.3811,288.13,94,76,76,RU,2023-07-23
284,harnai,30.1005,67.938,303.87,57,63,63,PK,2023-07-23
285,marka,60.0403,10.671,289.92,72,93,93,NO,2023-07-23
286,cabeza del buey,38.7214,-5.2194,308.86,10,1,1,ES,2023-07-23
287,kone,-21.0608,164.8619,288.07,72,4,4,NC,2023-07-23
288,zhytkavichy,52.2191,27.8571,290.09,64,69,69,BY,2023-07-23
289,saipan,15.191,145.7467,299.26,100,0,0,MP,2023-07-23
290,daru,-9.0699,143.21,297.67,72,100,100,PG,2023-07-23
291,wynyard,51.7667,-104.1833,298.14,53,38,38,CA,2023-07-23
292,alofi,-19.0534,-169.9192,296.43,83,31,31,NU,2023-07-23
293,villa de soto,-30.8552,-64.9995,286.71,20,73,73,AR,2023-07-23
294,turner,49.2337,-0.9307,292.21,96,100,100,FR,2023-07-23
295,codrington,51.5082,-2.3937,294.28,73,96,96,GB,2023-07-23
296,vredendal,-31.6794,18.4922,283.84,81,39,39,ZA,2023-07-23
297,masterton,-40.9496,175.6594,280.29,98,100,100,NZ,2023-07-23
298,kostanay,53.2147,63.6326,288.19,77,0,0,KZ,2023-07-23
299,halifax,44.6486,-63.5859,299.8,87,99,99,CA,2023-07-23
300,larkfield-wikiup,38.5103,-122.7509,310.1,47,40,40,US,2023-07-23
301,rio preto da eva,-2.6991,-59.7012,309.66,28,43,43,BR,2023-07-23
302,road town,18.4257,-64.6232,304.14,62,20,20,VG,2023-07-23
303,tambovka,41.4833,43.806,285.88,75,11,11,GE,2023-07-23
304,phan rang-thap cham,11.577,108.9865,298.92,87,100,100,VN,2023-07-23
305,mugia,43.1071,-9.2182,292.49,92,99,99,ES,2023-07-23
306,takab,36.4008,47.1117,298.28,30,42,42,IR,2023-07-23
307,tadine,-21.5483,167.8823,291.67,56,61,61,NC,2023-07-23
308,north bend,47.4958,-121.7849,299.05,63,4,4,US,2023-07-23
309,belmonte,39.5593,-2.7038,309.56,13,22,22,ES,2023-07-23
310,callao,-12.0523,-77.1391,296.27,64,75,75,PE,2023-07-23
311,peniche,39.3566,-9.3813,297.16,82,28,28,PT,2023-07-23
312,suntar,62.1575,117.6463,290.96,66,7,7,RU,2023-07-23
313,antsohimbondrona,-13.0931,48.8594,296.84,71,42,42,MG,2023-07-23
314,veymandoo,2.1874,73.0955,301.62,75,56,56,MV,2023-07-23
315,tabou,4.4194,-7.3604,298.79,80,75,75,CI,2023-07-23
316,gonzaga,44.9525,10.8226,304.33,56,2,2,IT,2023-07-23
317,costa calma,28.1608,-14.2301,300.03,80,0,0,ES,2023-07-23
318,dokkum,53.3244,5.9992,294.8,73,75,75,NL,2023-07-23
319,emerald,-23.5263,148.1619,281.1,89,99,99,AU,2023-07-23
320,namibe,-15.1951,12.1458,291.46,77,74,74,AO,2023-07-23
321,nemuro,43.3301,145.5829,288.71,98,100,100,JP,2023-07-23
322,simpang,4.8201,100.7058,299.83,94,99,99,MY,2023-07-23
323,labasa,-16.4333,179.3665,295.06,88,24,24,FJ,2023-07-23
324,hampton bays,40.869,-72.5176,303.15,38,0,0,US,2023-07-23
325,tordesillas,41.5009,-5.0005,304.15,15,36,36,ES,2023-07-23
326,bengkulu,-3.7923,102.2624,297.42,91,73,73,ID,2023-07-23
327,benghazi,32.1149,20.0686,302.86,67,0,0,LY,2023-07-23
328,ketchikan,55.3431,-131.6467,289.41,82,75,75,US,2023-07-23
329,geraldton,-28.7704,114.6147,281.24,61,0,0,AU,2023-07-23
330,hadibu,12.6512,54.0237,298.52,80,100,100,YE,2023-07-23
331,bundaberg north,-24.8551,152.3425,287.71,98,64,64,AU,2023-07-23
332,namtsy,62.7182,129.6642,291.54,63,19,19,RU,2023-07-23
333,ayacucho,-13.1604,-74.2257,295.07,20,0,0,PE,2023-07-23
334,natal,-5.8054,-35.2081,301.51,65,75,75,BR,2023-07-23
335,nha trang,12.2432,109.1899,299.16,86,99,99,VN,2023-07-23
336,tvoroyri,61.556,-6.803,282.64,77,98,98,FO,2023-07-23
337,santana,-12.9792,-44.0506,303.03,32,27,27,BR,2023-07-23
338,merritt,50.1114,-120.7892,299.98,33,37,37,CA,2023-07-23
339,qandala,11.4719,49.8734,306.73,50,86,86,SO,2023-07-23
340,zhaotong,27.3418,103.7147,290.95,87,47,47,CN,2023-07-23
341,houghton,47.1219,-88.569,298.77,69,0,0,US,2023-07-23
342,punta del este,-34.9632,-54.944,288.24,72,0,0,UY,2023-07-23
343,phang nga,8.4612,98.5313,300.18,96,100,100,TH,2023-07-23
344,barra do garcas,-15.8916,-52.2615,306.42,35,75,75,BR,2023-07-23
345,akcadag,38.3444,37.9711,302.84,23,0,0,TR,2023-07-23
346,queenstown,-45.0322,168.661,279.31,97,100,100,NZ,2023-07-23
347,st. john's,47.5628,-52.7108,300.86,74,75,75,CA,2023-07-23
348,mahina,-17.558,-149.4694,292.7,73,20,20,PF,2023-07-23
349,kathu,7.9107,98.3338,302.98,72,75,75,TH,2023-07-23
350,anchorage,61.2163,-149.8949,293.08,70,0,0,US,2023-07-23
351,happy valley-goose bay,53.2964,-60.3112,298.44,65,75,75,CA,2023-07-23
352,iskateley,67.6762,53.1292,289.62,87,99,99,RU,2023-07-23
353,strezhevoy,60.7328,77.6008,293.3,58,100,100,RU,2023-07-23
354,sterling,41.7883,-89.6954,301.33,57,0,0,US,2023-07-23
355,karagandy,49.8161,73.1027,292.01,36,77,77,KZ,2023-07-23
356,herning,56.138,8.9747,290.21,96,100,100,DK,2023-07-23
357,tyuratam,45.6507,63.3156,306.43,22,0,0,KZ,2023-07-23
358,coahuayana de hidalgo,18.6963,-103.662,302.15,66,97,97,MX,2023-07-23
359,novouzensk,50.4623,48.1355,293.19,66,100,100,RU,2023-07-23
360,tuapse,44.0985,39.0719,296.14,83,48,48,RU,2023-07-23
361,katabu,10.6948,7.5116,293.38,98,99,99,NG,2023-07-23
362,fort bragg,35.1403,-79.1541,306.4,53,40,40,US,2023-07-23
363,cidade velha,-1.4619,-48.5028,305.19,55,40,40,BR,2023-07-23
364,timimoun,29.2605,0.2286,317.36,10,4,4,DZ,2023-07-23
365,viljoenskroon,-27.2084,26.9486,288.3,42,86,86,ZA,2023-07-23
366,fray luis beltran,-39.3145,-65.7585,282.78,28,66,66,AR,2023-07-23
367,chenzhou,25.7734,113.0094,298.87,91,94,94,CN,2023-07-23
368,griffith,-34.2871,146.0551,274.81,92,0,0,AU,2023-07-23
369,mukalla,14.5425,49.1231,305.06,60,91,91,YE,2023-07-23
370,the dalles,45.6015,-121.1842,305.89,43,0,0,US,2023-07-23
371,arraial do cabo,-22.9663,-42.0244,298.09,69,40,40,BR,2023-07-23
372,olinda,-7.9986,-34.846,300.16,69,40,40,BR,2023-07-23
373,zhanaozen,43.3381,52.8556,307.19,21,28,28,KZ,2023-07-23
374,puerto real,36.5287,-6.1902,305.16,65,0,0,ES,2023-07-23
375,berlin,52.517,13.3889,296.47,52,0,0,DE,2023-07-23
376,shambu,9.5665,37.1004,284.75,92,95,95,ET,2023-07-23
377,sikonge,-5.6252,32.7542,298.32,34,81,81,TZ,2023-07-23
378,fuling,29.7065,107.3911,300.09,80,80,80,CN,2023-07-23
379,thunder bay,48.4064,-89.2598,295.18,64,100,100,CA,2023-07-23
380,ploudalmezeau,48.541,-4.6577,291.49,82,100,100,FR,2023-07-23
381,itoman,26.106,127.6861,302.37,81,40,40,JP,2023-07-23
382,playa del ingles,27.7595,-15.5741,299.07,67,0,0,ES,2023-07-23
383,madang,-5.212,145.8054,297.11,95,94,94,PG,2023-07-23
384,hovd,48.0006,91.6452,292.45,29,5,5,MN,2023-07-23
385,farkhar,36.5729,69.8578,298.05,30,0,0,AF,2023-07-23
386,ibresi,55.3043,47.0389,288.93,85,89,89,RU,2023-07-23
387,young,34.1067,-110.9402,308.28,29,52,52,US,2023-07-23
388,quellon,-43.12,-73.6203,281.42,76,75,75,CL,2023-07-23
389,baruun-urt,46.6809,113.2835,289.29,60,69,69,MN,2023-07-23
390,thinadhoo,0.5326,72.9971,301.55,74,6,6,MV,2023-07-23
391,barra do corda,-5.4968,-45.2485,309.71,21,59,59,BR,2023-07-23
392,sur,33.2721,35.1964,302.06,67,0,0,LB,2023-07-23
393,kiunga,-6.116,141.2982,294.82,99,100,100,PG,2023-07-23
394,port blair,11.6645,92.739,300.16,80,100,100,IN,2023-07-23
395,coquimbo,-29.9532,-71.338,290.08,77,0,0,CL,2023-07-23
396,xinyuan,43.4326,83.2277,296.92,28,100,100,CN,2023-07-23
397,gilgit,35.9208,74.314,302.4,53,74,74,PK,2023-07-23
398,bandundu,-3.3202,17.3775,303.81,33,77,77,CD,2023-07-23
399,mount isa,-20.729,139.4932,283.07,50,0,0,AU,2023-07-23
400,aras-asan,8.8886,126.3094,299.82,81,100,100,PH,2023-07-23
401,kuta,-8.7278,115.173,298.16,88,20,20,ID,2023-07-23
402,carson city,39.1698,-119.7576,307.69,19,0,0,US,2023-07-23
403,huaidian,32.1264,116.6395,299.45,87,0,0,CN,2023-07-23
404,panaba,12.1373,-16.0391,301.29,73,83,83,GW,2023-07-23
405,progreso,26.0923,-97.9572,311.57,62,0,0,US,2023-07-23
406,el matama,16.7096,33.357,311.31,15,49,49,SD,2023-07-23
407,huarmey,-10.0687,-78.1522,296.15,69,55,55,PE,2023-07-23
408,ulladulla,-35.3622,150.4752,283.05,86,53,53,AU,2023-07-23
409,charef,34.6271,2.8059,307.86,7,0,0,DZ,2023-07-23
410,gaur,49.4939,0.108,292.01,100,100,100,FR,2023-07-23
411,podujeva,42.9078,21.1925,297.28,74,28,28,XK,2023-07-23
412,bubaque,11.2997,-15.8335,300.36,81,80,80,GW,2023-07-23
413,abepura,-2.6161,140.673,297.56,88,20,20,ID,2023-07-23
414,askoy,60.5023,5.0948,292.58,1,7,7,NO,2023-07-23
415,hola,-1.4977,40.0349,297.95,74,28,28,KE,2023-07-23
416,atamanovka,47.3411,38.4899,293.99,81,55,55,RU,2023-07-23
417,barra de santo antonio,-9.4038,-35.5118,299.71,73,18,18,BR,2023-07-23
418,pauini,-7.7122,-66.9998,309.19,29,0,0,BR,2023-07-23
419,beyneu,45.3214,55.1862,306.28,27,9,9,KZ,2023-07-23
420,cidreira,-30.1657,-50.2183,297.64,64,71,71,BR,2023-07-23
421,al jawf,24.1985,23.2939,306.29,12,42,42,LY,2023-07-23
422,mweka,-4.8477,21.5612,299.2,32,4,4,CD,2023-07-23
423,drahichyn,52.1888,25.1559,293.52,51,76,76,BY,2023-07-23
424,naze,5.452,7.0567,298.88,96,99,99,NG,2023-07-23
425,saundatti,15.7672,75.1175,295.4,90,100,100,IN,2023-07-23
426,kapa'a,-33.929,18.4174,284.29,82,40,40,ZA,2023-07-23
427,leer,53.2328,7.4577,293.68,79,96,96,DE,2023-07-23
428,villa el carmen,11.9801,-86.511,302.87,52,65,65,NI,2023-07-23
429,nadi,-17.7993,177.4179,295.15,83,75,75,FJ,2023-07-23
430,puerto escondido,15.8693,-97.0726,305.99,55,20,20,MX,2023-07-23
431,vorkuta,67.5036,64.0627,287.82,98,100,100,RU,2023-07-23
432,dryden,42.4909,-76.2972,302.09,52,0,0,US,2023-07-23
433,brindisi,40.6395,17.9455,308.46,55,0,0,IT,2023-07-23
434,es castell,39.8799,4.2905,301.63,89,20,20,ES,2023-07-23
435,saint-philippe,45.3584,-73.479,300.94,47,20,20,CA,2023-07-23
436,guasdualito,7.2368,-70.724,299.56,85,95,95,VE,2023-07-23
437,wayne,41.9511,-88.2706,301.7,60,0,0,US,2023-07-23
438,sidrolandia,-20.9361,-54.964,304.29,25,0,0,BR,2023-07-23
439,laguna,-28.4837,-48.7817,295.98,69,9,9,BR,2023-07-23
440,rongelap,11.1629,166.8943,301.77,75,76,76,MH,2023-07-23
441,vila franca do campo,37.7172,-25.4335,297.38,76,44,44,PT,2023-07-23
442,yanchep,-31.5499,115.6257,286.29,53,0,0,AU,2023-07-23
443,tsengel,48.9523,89.1462,286.41,35,15,15,MN,2023-07-23
444,bairnsdale,-37.8255,147.6305,278.71,94,41,41,AU,2023-07-23
445,marvdasht,29.8763,52.8063,305.4,14,59,59,IR,2023-07-23
446,bin yauri,10.7853,4.8064,300.05,79,95,95,NG,2023-07-23
447,manatutu,-8.5108,126.0137,296.57,79,92,92,TL,2023-07-23
448,la junta,37.985,-103.5438,308.74,33,0,0,US,2023-07-23
449,tamiahua,21.2781,-97.4456,305.45,57,90,90,MX,2023-07-23
450,sola,37.5667,126.9783,297.91,94,100,100,KR,2023-07-23
451,naracoorte,-36.9575,140.7414,282.89,85,100,100,AU,2023-07-23
452,stephenville,32.2192,-98.2131,309.68,26,0,0,US,2023-07-23
453,aleksandrovsk-sakhalinskiy,50.8975,142.1592,289.55,96,99,99,RU,2023-07-23
454,holualoa,19.6238,-155.9536,300.72,77,0,0,US,2023-07-23
455,mao,31.6835,103.8502,292.11,95,100,100,CN,2023-07-23
456,oranjemund,-28.5519,16.4284,285.78,84,88,88,NA,2023-07-23
457,gumdag,39.2024,54.5875,308.78,13,6,6,TM,2023-07-23
458,kyain seikgyi township,16.0414,98.121,297.04,98,63,63,MM,2023-07-23
459,mili,37.5536,22.7169,303.64,36,0,0,GR,2023-07-23
460,santarem,39.2364,-8.6867,300.68,61,12,12,PT,2023-07-23
461,saudarkrokur,65.7443,-19.6386,283.49,95,100,100,IS,2023-07-23
462,zarumilla,-3.5006,-80.275,303.27,58,40,40,PE,2023-07-23
463,fuxin,42.0152,121.6453,293.54,87,17,17,CN,2023-07-23
464,xining,36.6173,101.7762,285.92,84,80,80,CN,2023-07-23
465,zambezi,-13.5501,23.1152,292.65,25,1,1,ZM,2023-07-23
466,somerset east,-32.7183,25.5889,281.19,89,25,25,ZA,2023-07-23
467,quelimane,-17.8775,36.8902,294.12,88,0,0,MZ,2023-07-23
468,oak hill,39.2466,-97.3428,307.47,41,1,1,US,2023-07-23
469,hyesan,41.4029,128.1778,290.7,96,49,49,KP,2023-07-23
470,hwange,-18.3529,26.4987,293.15,40,0,0,ZW,2023-07-23
471,sitka,57.0525,-135.3376,287.05,88,100,100,US,2023-07-23
472,ust'-barguzin,53.4107,109.0311,290.62,59,69,69,RU,2023-07-23
473,saint-joseph,49.5345,-1.5298,291.46,82,40,40,FR,2023-07-23
474,yambio,4.5681,28.3977,297.74,67,62,62,SS,2023-07-23
475,touros,-5.1999,-35.4595,302.09,58,50,50,BR,2023-07-23
476,general pico,-35.6591,-63.7576,285.91,44,75,75,AR,2023-07-23
477,tres arroyos,-38.377,-60.2756,282.51,48,45,45,AR,2023-07-23
478,colares,-0.9364,-48.2803,304.64,53,58,58,BR,2023-07-23
479,tralee,52.2693,-9.7054,288.65,90,100,100,IE,2023-07-23
480,challapata,-18.9022,-66.775,287.96,10,0,0,BO,2023-07-23
481,vohipaho,-21.7777,47.7413,290.07,99,18,18,MG,2023-07-23
482,charters towers,-20.0714,146.271,286.73,39,66,66,AU,2023-07-23
483,san fernando de apure,7.8786,-67.4681,300.51,86,79,79,VE,2023-07-23
484,nema,16.6173,-7.2664,309.69,33,44,44,MR,2023-07-23
485,tura,47.39,0.6889,295.48,74,0,0,FR,2023-07-23
486,igarka,67.4566,86.5308,289.44,89,31,31,RU,2023-07-23
487,abalak,15.4637,6.2813,310.27,28,47,47,NE,2023-07-23
488,juan griego,11.0721,-63.9652,303.68,64,92,92,VE,2023-07-23
489,rakops,-21.0298,24.4026,292.33,28,3,3,BW,2023-07-23
490,lae,-6.7302,147.0008,296.7,96,100,100,PG,2023-07-23
491,garissa,-0.4567,39.6405,300.0,58,76,76,KE,2023-07-23
492,tofol,5.326,163.0087,301.75,77,81,81,FM,2023-07-23
493,praia da vitoria,38.7392,-27.1563,295.55,83,75,75,PT,2023-07-23
494,chinde,-18.5831,36.4616,293.85,81,0,0,MZ,2023-07-23
495,gisborne,-38.6613,178.0206,280.49,81,2,2,NZ,2023-07-23
496,tamale,9.4052,-0.8424,299.13,82,84,84,GH,2023-07-23
497,sibolga,1.737,98.7846,297.52,88,99,99,ID,2023-07-23
498,sandakan,5.8391,118.1159,297.23,100,20,20,MY,2023-07-23
499,itapirapua,-15.8205,-50.6094,306.46,18,0,0,BR,2023-07-23
500,seogwipo,33.2573,126.5153,300.19,95,85,85,KR,2023-07-23
501,molde,62.6016,8.1386,288.15,72,87,87,NO,2023-07-23
502,mar del plata,-37.9977,-57.5483,283.66,80,40,40,AR,2023-07-23
503,jijiga,9.3509,42.8004,292.97,69,100,100,ET,2023-07-23
504,robertsport,6.7526,-11.3669,299.77,79,97,97,LR,2023-07-23
505,kargopol',61.5091,38.9408,286.62,88,92,92,RU,2023-07-23
506,aykhal,65.9516,111.4918,289.76,66,79,79,RU,2023-07-23
507,choyr,46.3581,108.3616,289.22,74,86,86,MN,2023-07-23
508,mejit,10.2843,170.8699,301.51,79,87,87,MH,2023-07-23
509,vredenburg,-32.9067,17.99,280.51,93,17,17,ZA,2023-07-23
510,yeed,4.5384,43.025,300.8,55,100,100,SO,2023-07-23
511,sungailiat,-1.8477,106.1192,299.37,82,15,15,ID,2023-07-23
512,acarau,-2.887,-40.1195,303.5,57,39,39,BR,2023-07-23
513,fuvahmulah,-0.2948,73.4241,301.42,75,23,23,MV,2023-07-23
514,gaspe,48.6581,-65.7528,296.63,57,81,81,CA,2023-07-23
515,yamada,39.4677,141.9491,294.38,92,100,100,JP,2023-07-23
516,lucea,18.4472,-78.1729,305.16,75,11,11,JM,2023-07-23
517,ad darb,17.7334,42.2501,310.83,24,72,72,SA,2023-07-23
518,ghanzi,-21.6968,21.6457,292.3,31,13,13,BW,2023-07-23
519,ola,35.0323,-93.2232,306.42,33,0,0,US,2023-07-23
520,greenbrier,35.2339,-92.3878,306.51,53,0,0,US,2023-07-23
521,tashla,53.7079,49.7549,292.08,68,100,100,RU,2023-07-23
522,yeosu,34.7546,127.6599,296.83,98,89,89,KR,2023-07-23
523,lata,18.3983,76.5621,296.23,90,100,100,IN,2023-07-23
524,cannonvale,-20.2822,148.6895,291.05,88,86,86,AU,2023-07-23
525,puquio,-14.6946,-74.1237,293.89,19,2,2,PE,2023-07-23
526,borogontsy,62.6708,131.1661,287.62,84,3,3,RU,2023-07-23
527,richards bay,-28.7708,32.0578,291.17,79,96,96,ZA,2023-07-23
528,plastun,44.759,136.2864,292.24,100,100,100,RU,2023-07-23
529,glace bay,46.1949,-59.9562,297.24,97,100,100,CA,2023-07-23
530,qazvin,36.2804,50.0067,303.01,29,21,21,IR,2023-07-23
531,tete,-16.1604,33.5871,293.2,68,0,0,MZ,2023-07-23
532,anaco,-16.3983,-67.65,302.6,41,1,1,BO,2023-07-23
533,mangrol,21.5756,72.8565,300.08,88,91,91,IN,2023-07-23
534,pangody,65.8566,74.4948,291.6,73,59,59,RU,2023-07-23
535,sidi khaled,34.3916,5.0005,314.74,6,0,0,DZ,2023-07-23
536,dali,25.6802,100.3001,289.99,94,27,27,CN,2023-07-23
537,koungou,-12.7358,45.2067,297.03,78,0,0,YT,2023-07-23
538,karatau,43.1762,70.4649,301.1,24,0,0,KZ,2023-07-23
539,lethem,3.375,-59.7959,305.18,66,40,40,GY,2023-07-23
540,inirida,3.865,-67.926,299.97,82,94,94,CO,2023-07-23
541,new plymouth,-39.058,174.0806,283.79,84,89,89,NZ,2023-07-23
542,lewistown,47.0639,-109.4282,303.54,25,0,0,US,2023-07-23
543,baymak,52.5979,58.3076,287.69,64,81,81,RU,2023-07-23
544,knoxville,35.9606,-83.9207,304.33,52,0,0,US,2023-07-23
545,micheweni,-4.9828,39.8332,297.19,85,24,24,TZ,2023-07-23
546,banat,45.7558,21.5522,299.76,53,0,0,RO,2023-07-23
547,mabaruma,8.2037,-59.7849,303.07,74,75,75,GY,2023-07-23
548,dar naim,18.1188,-15.9218,301.15,71,60,60,MR,2023-07-23
549,san fernando de monte cristi,19.8484,-71.6457,304.22,62,9,9,DO,2023-07-23
550,newnham,52.021,-0.1853,296.2,65,98,98,GB,2023-07-23
551,saint-louis,38.6334,-90.244,306.99,54,20,20,US,2023-07-23
552,ust'-kulom,61.6848,53.6899,287.37,84,74,74,RU,2023-07-23
553,keningau,5.3317,116.1523,295.28,97,100,100,MY,2023-07-23
554,kalmunai,7.4132,81.8269,300.42,73,100,100,LK,2023-07-23
555,gebeit,21.0667,36.3167,307.64,13,59,59,SD,2023-07-23
556,aksehir,38.3589,31.4202,299.41,37,1,1,TR,2023-07-23
557,ballina,-28.8657,153.5659,284.14,68,83,83,AU,2023-07-23
558,ciechocinek,52.8839,18.8033,296.35,55,100,100,PL,2023-07-23
559,fortuna,40.5974,-124.156,293.05,88,75,75,US,2023-07-23
560,melfort,52.8614,-104.6136,296.21,53,23,23,CA,2023-07-23
561,mazamari,-11.3288,-74.5307,305.26,36,44,44,PE,2023-07-23
562,sorel-tracy,46.0444,-73.1047,301.05,56,1,1,CA,2023-07-23
563,porto novo,6.4991,2.6253,298.03,94,100,100,BJ,2023-07-23
564,pangai,-19.8055,-174.3489,296.18,78,20,20,TO,2023-07-23
565,wildwood,38.5807,-90.6314,306.44,58,20,20,US,2023-07-23
566,urangan,-25.2872,152.8981,289.83,80,50,50,AU,2023-07-23
567,las lomitas,-24.7075,-60.5943,306.08,25,16,16,AR,2023-07-23
568,sandnessjoen,66.0215,12.6317,287.44,88,75,75,NO,2023-07-23
